{"type":"FeatureCollection","features":[{"type":"Feature","geometry":{"type":"Point","coordinates":[138.5333251952511,-34.883300780597324]},"properties":{"OWNER_OPER":"","STATION_NA":"Basil Hetzel Complex","CAPACITY_M":null,"DEVELOPMEN":"In Service","UNIT_STATU":"Operational","SCALE":"Small","SA_GOV_REG":"WESTERN ADELAIDE","LOCAL_GOVE":"CITY OF CHARLES STURT","SUBURB":"WOODVILLE SOUTH","LATITUDE":-34.8833781,"LONGITUDE":138.5332299,"DISPATCH":"ON"}},{"type":"Feature","geometry":{"type":"Point","coordinates":[140.60369873008528,-34.28570556624396]},"properties":{"OWNER_OPER":"","STATION_NA":"Berri Police Station","CAPACITY_M":null,"DEVELOPMEN":"In Service","UNIT_STATU":"Operational","SCALE":"Small","SA_GOV_REG":"MURRAY AND MALLEE","LOCAL_GOVE":"THE BERRI BARMERA COUNCIL","SUBURB":"BERRI","LATITUDE":-34.2857589,"LONGITUDE":140.6037265,"DISPATCH":"ON"}},{"type":"Feature","geometry":{"type":"Point","coordinates":[139.5769042970469,-30.184082030817535]},"properties":{"OWNER_OPER":"Heathgate Resources Pty Ltd","STATION_NA":"Beverley","CAPACITY_M":6,"DEVELOPMEN":"In Service","UNIT_STATU":"Prime","SCALE":"Large","SA_GOV_REG":"FAR NORTH","LOCAL_GOVE":"PASTORAL UNINCORPORATED AREA","SUBURB":"WOOLTANA","LATITUDE":-30.18413804,"LONGITUDE":139.5767897,"DISPATCH":""}},{"type":"Feature","geometry":{"type":"Point","coordinates":[136.85870361316347,-30.449096680220578]},"properties":{"OWNER_OPER":"BHP Billiton","STATION_NA":"BHP Olympic Dam Backup","CAPACITY_M":30,"DEVELOPMEN":"Under Development","UNIT_STATU":"Under Development","SCALE":"Large","SA_GOV_REG":"FAR NORTH","LOCAL_GOVE":"PASTORAL UNINCORPORATED AREA","SUBURB":"OLYMPIC DAM","LATITUDE":-30.44912353,"LONGITUDE":136.8586289,"DISPATCH":""}},{"type":"Feature","geometry":{"type":"Point","coordinates":[138.67687988311843,-31.09448242174153]},"properties":{"OWNER_OPER":"Dept. Energy & Mining - RAES Scheme","STATION_NA":"Blinman Power Station","CAPACITY_M":0.26,"DEVELOPMEN":"In Service","UNIT_STATU":"Mini Grid - Prime","SCALE":"Small","SA_GOV_REG":"FAR NORTH","LOCAL_GOVE":"PASTORAL UNINCORPORATED AREA","SUBURB":"BLINMAN","LATITUDE":-31.09447022,"LONGITUDE":138.6768807,"DISPATCH":""}},{"type":"Feature","geometry":{"type":"Point","coordinates":[140.75750732437166,-36.31640624974233]},"properties":{"OWNER_OPER":"Vibe Energy Pty Ltd","STATION_NA":"Blue Lake Milling Power Plant","CAPACITY_M":1,"DEVELOPMEN":"In Service","UNIT_STATU":"Operational","SCALE":"Small","SA_GOV_REG":"LIMESTONE COAST","LOCAL_GOVE":"TATIARA DC","SUBURB":"BORDERTOWN","LATITUDE":-36.31641959,"LONGITUDE":140.7574689,"DISPATCH":"Generator"}},{"type":"Feature","geometry":{"type":"Point","coordinates":[135.47851562539552,-30.422607422137958]},"properties":{"OWNER_OPER":"Owner","STATION_NA":"Bon Bon Station","CAPACITY_M":null,"DEVELOPMEN":"In Service","UNIT_STATU":"Operational","SCALE":"Small","SA_GOV_REG":"FAR NORTH","LOCAL_GOVE":"PASTORAL UNINCORPORATED AREA","SUBURB":"BON BON","LATITUDE":-30.42268424,"LONGITUDE":135.4785272,"DISPATCH":"Off-Grid"}},{"type":"Feature","geometry":{"type":"Point","coordinates":[139.49792480510462,-34.34997558622797]},"properties":{"OWNER_OPER":"","STATION_NA":"Brookfield Conservation Park","CAPACITY_M":null,"DEVELOPMEN":"In Service","UNIT_STATU":"Operational","SCALE":"Small","SA_GOV_REG":"MURRAY AND MALLEE","LOCAL_GOVE":"MID MURRAY COUNCIL","SUBURB":"BLANCHETOWN","LATITUDE":-34.34998376,"LONGITUDE":139.4979009,"DISPATCH":"Off-Grid"}},{"type":"Feature","geometry":{"type":"Point","coordinates":[138.6231079097064,-34.92089843813403]},"properties":{"OWNER_OPER":"","STATION_NA":"Bureau Of Meteorology","CAPACITY_M":null,"DEVELOPMEN":"In Service","UNIT_STATU":"Operational","SCALE":"Small","SA_GOV_REG":"EASTERN ADELAIDE","LOCAL_GOVE":"THE CITY OF NORWOOD PAYNEHAM AND ST PETERS","SUBURB":"KENT TOWN","LATITUDE":-34.92093677,"LONGITUDE":138.6230993,"DISPATCH":"ON"}},{"type":"Feature","geometry":{"type":"Point","coordinates":[139.75787353508633,-34.0568847662488]},"properties":{"OWNER_OPER":"","STATION_NA":"Cadell Training Centre","CAPACITY_M":null,"DEVELOPMEN":"In Service","UNIT_STATU":"Back-up","SCALE":"Small","SA_GOV_REG":"MURRAY AND MALLEE","LOCAL_GOVE":"MID MURRAY COUNCIL","SUBURB":"CADELL","LATITUDE":-34.05686488,"LONGITUDE":139.7578613,"DISPATCH":"ON"}},{"type":"Feature","geometry":{"type":"Point","coordinates":[135.11267089787134,-29.29638671910726]},"properties":{"OWNER_OPER":"","STATION_NA":"Cairn Hill","CAPACITY_M":null,"DEVELOPMEN":"In Service","UNIT_STATU":"Operational","SCALE":"Small","SA_GOV_REG":"FAR NORTH","LOCAL_GOVE":"PASTORAL UNINCORPORATED AREA","SUBURB":"INGOMAR","LATITUDE":-29.29636487,"LONGITUDE":135.1126334,"DISPATCH":"Off-Grid"}},{"type":"Feature","geometry":{"type":"Point","coordinates":[140.7678833013672,-33.37628173793132]},"properties":{"OWNER_OPER":"Dept. Environment & Water","STATION_NA":"Canopus Station","CAPACITY_M":0.01,"DEVELOPMEN":"In Service","UNIT_STATU":"Prime","SCALE":"Small","SA_GOV_REG":"MURRAY AND MALLEE","LOCAL_GOVE":"PASTORAL UNINCORPORATED AREA","SUBURB":"DANGGALI","LATITUDE":-33.37630609,"LONGITUDE":140.7677405,"DISPATCH":"Off-Grid"}},{"type":"Feature","geometry":{"type":"Point","coordinates":[139.73870849558864,-36.33709716794516]},"properties":{"OWNER_OPER":"Dept. Environment & Water","STATION_NA":"Cantara Homestead","CAPACITY_M":0.01,"DEVELOPMEN":"In Service","UNIT_STATU":"Prime","SCALE":"Small","SA_GOV_REG":"LIMESTONE COAST","LOCAL_GOVE":"KINGSTON DC","SUBURB":"COORONG","LATITUDE":-36.3371875,"LONGITUDE":139.7386262,"DISPATCH":"Off-Grid"}},{"type":"Feature","geometry":{"type":"Point","coordinates":[137.313476562108,-35.62432861324163]},"properties":{"OWNER_OPER":"","STATION_NA":"Cape Cassini Wilderness Retreat","CAPACITY_M":0.01,"DEVELOPMEN":"In Service","UNIT_STATU":"Operational","SCALE":"Small","SA_GOV_REG":"FLEURIEU AND KANGAROO ISLAND","LOCAL_GOVE":"KANGAROO ISLAND COUNCIL","SUBURB":"CASSINI","LATITUDE":-35.62435902,"LONGITUDE":137.3134884,"DISPATCH":"Off-Grid"}},{"type":"Feature","geometry":{"type":"Point","coordinates":[133.6749267578225,-32.126708983930484]},"properties":{"OWNER_OPER":"Police","STATION_NA":"Ceduna Police Headquarters","CAPACITY_M":null,"DEVELOPMEN":"In Service","UNIT_STATU":"Operational","SCALE":"Small","SA_GOV_REG":"EYRE AND WESTERN","LOCAL_GOVE":"THE DC OF CEDUNA","SUBURB":"CEDUNA","LATITUDE":-32.12678837,"LONGITUDE":133.6748144,"DISPATCH":"ON"}},{"type":"Feature","geometry":{"type":"Point","coordinates":[132.01849365162104,-26.481201171759892]},"properties":{"OWNER_OPER":"Dept. Energy & Mining - RAES Scheme","STATION_NA":"Central Powerhouse","CAPACITY_M":4.87,"DEVELOPMEN":"In Service","UNIT_STATU":"Mini Grid - Prime","SCALE":"Small","SA_GOV_REG":"FAR NORTH","LOCAL_GOVE":"ANANGU PITJANTJATJARA YANKUNYTJATJARA","SUBURB":"UMUWA","LATITUDE":-26.48128344,"LONGITUDE":132.0183998,"DISPATCH":""}},{"type":"Feature","geometry":{"type":"Point","coordinates":[133.59912109386698,-29.87988281338437]},"properties":{"OWNER_OPER":"","STATION_NA":"Challenger Gold Mine","CAPACITY_M":5,"DEVELOPMEN":"In Service","UNIT_STATU":"Off Grid","SCALE":"Large","SA_GOV_REG":"FAR NORTH","LOCAL_GOVE":"PASTORAL UNINCORPORATED AREA","SUBURB":"COMMONWEALTH HILL","LATITUDE":-29.8799574,"LONGITUDE":133.599069,"DISPATCH":""}},{"type":"Feature","geometry":{"type":"Point","coordinates":[138.4868774414241,-35.13800048779308]},"properties":{"OWNER_OPER":"Police","STATION_NA":"Christies Beach Police Station","CAPACITY_M":0.06,"DEVELOPMEN":"In Service","UNIT_STATU":"Prime","SCALE":"Small","SA_GOV_REG":"SOUTHERN ADELAIDE","LOCAL_GOVE":"CITY OF ONKAPARINGA","SUBURB":"CHRISTIE DOWNS","LATITUDE":-35.13797546,"LONGITUDE":138.4868175,"DISPATCH":"ON"}},{"type":"Feature","geometry":{"type":"Point","coordinates":[134.75170898440388,-29.012084960630204]},"properties":{"OWNER_OPER":"","STATION_NA":"Coober Pedy Lot 167 Cameron Drive","CAPACITY_M":null,"DEVELOPMEN":"In Service","UNIT_STATU":"Operational","SCALE":"Small","SA_GOV_REG":"FAR NORTH","LOCAL_GOVE":"THE DC OF COOBER PEDY","SUBURB":"COOBER PEDY","LATITUDE":-29.01213626,"LONGITUDE":134.7516556,"DISPATCH":"MINI"}},{"type":"Feature","geometry":{"type":"Point","coordinates":[134.75170898440388,-29.012084960630204]},"properties":{"OWNER_OPER":"","STATION_NA":"Coober Pedy Lot 168 Cameron Drive","CAPACITY_M":null,"DEVELOPMEN":"In Service","UNIT_STATU":"Operational","SCALE":"Small","SA_GOV_REG":"FAR NORTH","LOCAL_GOVE":"THE DC OF COOBER PEDY","SUBURB":"COOBER PEDY","LATITUDE":-29.01213626,"LONGITUDE":134.7516556,"DISPATCH":"MINI"}},{"type":"Feature","geometry":{"type":"Point","coordinates":[134.75732421891917,-29.017700195145437]},"properties":{"OWNER_OPER":"","STATION_NA":"Coober Pedy Lot 310 Eyre Street","CAPACITY_M":null,"DEVELOPMEN":"In Service","UNIT_STATU":"Operational","SCALE":"Small","SA_GOV_REG":"FAR NORTH","LOCAL_GOVE":"THE DC OF COOBER PEDY","SUBURB":"COOBER PEDY","LATITUDE":-29.01773351,"LONGITUDE":134.7572278,"DISPATCH":"MINI"}},{"type":"Feature","geometry":{"type":"Point","coordinates":[134.75170898440388,-29.012084960630204]},"properties":{"OWNER_OPER":"","STATION_NA":"Coober Pedy Lot 485 Boulder Avenue","CAPACITY_M":null,"DEVELOPMEN":"In Service","UNIT_STATU":"Operational","SCALE":"Small","SA_GOV_REG":"FAR NORTH","LOCAL_GOVE":"THE DC OF COOBER PEDY","SUBURB":"COOBER PEDY","LATITUDE":-29.01213626,"LONGITUDE":134.7516556,"DISPATCH":"MINI"}},{"type":"Feature","geometry":{"type":"Point","coordinates":[134.75311279253276,-29.016113280652007]},"properties":{"OWNER_OPER":"Police","STATION_NA":"Coober Pedy Police Station","CAPACITY_M":null,"DEVELOPMEN":"In Service","UNIT_STATU":"Prime","SCALE":"Small","SA_GOV_REG":"FAR NORTH","LOCAL_GOVE":"THE DC OF COOBER PEDY","SUBURB":"COOBER PEDY","LATITUDE":-29.01619627,"LONGITUDE":134.7531424,"DISPATCH":"MINI"}},{"type":"Feature","geometry":{"type":"Point","coordinates":[134.76928710940808,-29.01940918021529]},"properties":{"OWNER_OPER":"Energy Developments","STATION_NA":"Coober Pedy Remote Power","CAPACITY_M":4,"DEVELOPMEN":"In Service","UNIT_STATU":"Off Grid","SCALE":"Small","SA_GOV_REG":"FAR NORTH","LOCAL_GOVE":"THE DC OF COOBER PEDY","SUBURB":"COOBER PEDY","LATITUDE":-29.01942607,"LONGITUDE":134.7692561,"DISPATCH":""}},{"type":"Feature","geometry":{"type":"Point","coordinates":[136.91888427733738,-33.682983397681085]},"properties":{"OWNER_OPER":"","STATION_NA":"Cowell Area School","CAPACITY_M":null,"DEVELOPMEN":"In Service","UNIT_STATU":"Operational","SCALE":"Small","SA_GOV_REG":"EYRE AND WESTERN","LOCAL_GOVE":"THE DC OF FRANKLIN HARBOUR","SUBURB":"COWELL","LATITUDE":-33.68306072,"LONGITUDE":136.918761,"DISPATCH":"ON"}},{"type":"Feature","geometry":{"type":"Point","coordinates":[140.4157104494018,-32.46990966802912]},"properties":{"OWNER_OPER":"Both owner and operator","STATION_NA":"Devonborough Downs (House)","CAPACITY_M":null,"DEVELOPMEN":"In Service","UNIT_STATU":"Operational","SCALE":"Small","SA_GOV_REG":"FAR NORTH","LOCAL_GOVE":"PASTORAL UNINCORPORATED AREA","SUBURB":"DEVONBOROUGH DOWNS","LATITUDE":-32.47006115,"LONGITUDE":140.4157383,"DISPATCH":"Off-Grid"}},{"type":"Feature","geometry":{"type":"Point","coordinates":[138.13031005870766,-35.8422851559356]},"properties":{"OWNER_OPER":"","STATION_NA":"Dudley Partners","CAPACITY_M":0.04,"DEVELOPMEN":"In Service","UNIT_STATU":"Operational","SCALE":"Small","SA_GOV_REG":"FLEURIEU AND KANGAROO ISLAND","LOCAL_GOVE":"KANGAROO ISLAND COUNCIL","SUBURB":"WILLOUGHBY","LATITUDE":-35.84225913,"LONGITUDE":138.1302435,"DISPATCH":"ON"}},{"type":"Feature","geometry":{"type":"Point","coordinates":[138.75347900432064,-35.09667968817564]},"properties":{"OWNER_OPER":"","STATION_NA":"Echunga Police Training Complex","CAPACITY_M":0.01,"DEVELOPMEN":"In Service","UNIT_STATU":"Operational","SCALE":"Small","SA_GOV_REG":"ADELAIDE HILLS","LOCAL_GOVE":"MOUNT BARKER DISTRICT COUNCIL","SUBURB":"JUPITER CREEK","LATITUDE":-35.09665321,"LONGITUDE":138.7534407,"DISPATCH":"Unknown"}},{"type":"Feature","geometry":{"type":"Point","coordinates":[138.5733032225279,-34.976501465192314]},"properties":{"OWNER_OPER":"","STATION_NA":"Edwardstown Community Correction Centre","CAPACITY_M":0.01,"DEVELOPMEN":"In Service","UNIT_STATU":"Operational","SCALE":"Small","SA_GOV_REG":"SOUTHERN ADELAIDE","LOCAL_GOVE":"CITY OF MARION","SUBURB":"EDWARDSTOWN","LATITUDE":-34.97655329,"LONGITUDE":138.5733078,"DISPATCH":"ON"}},{"type":"Feature","geometry":{"type":"Point","coordinates":[138.5784912105256,-34.97869872956784]},"properties":{"OWNER_OPER":"Dept. Environment & Water","STATION_NA":"Edwardstown Primary School","CAPACITY_M":null,"DEVELOPMEN":"In Service","UNIT_STATU":"Prime","SCALE":"Small","SA_GOV_REG":"SOUTHERN ADELAIDE","LOCAL_GOVE":"CITY OF MITCHAM","SUBURB":"MELROSE PARK","LATITUDE":-34.9787394,"LONGITUDE":138.5785217,"DISPATCH":"ON"}},{"type":"Feature","geometry":{"type":"Point","coordinates":[138.67108154323853,-34.71618652348138]},"properties":{"OWNER_OPER":"CAA","STATION_NA":"Elizabeth Magistrates Court","CAPACITY_M":null,"DEVELOPMEN":"In Service","UNIT_STATU":"Standby","SCALE":"Small","SA_GOV_REG":"BAROSSA, LIGHT AND LOWER NORTH","LOCAL_GOVE":"CITY OF PLAYFORD","SUBURB":"ELIZABETH","LATITUDE":-34.71627007,"LONGITUDE":138.6711242,"DISPATCH":"ON"}},{"type":"Feature","geometry":{"type":"Point","coordinates":[138.67108154323853,-34.71618652348138]},"properties":{"OWNER_OPER":"Police","STATION_NA":"Elizabeth Police Station","CAPACITY_M":0.2,"DEVELOPMEN":"In Service","UNIT_STATU":"Standby","SCALE":"Small","SA_GOV_REG":"BAROSSA, LIGHT AND LOWER NORTH","LOCAL_GOVE":"CITY OF PLAYFORD","SUBURB":"ELIZABETH","LATITUDE":-34.71627007,"LONGITUDE":138.6711242,"DISPATCH":"ON"}},{"type":"Feature","geometry":{"type":"Point","coordinates":[137.5523071293694,-35.78588867163057]},"properties":{"OWNER_OPER":"","STATION_NA":"Emu Ridge Eucalyptus","CAPACITY_M":0.01,"DEVELOPMEN":"In Service","UNIT_STATU":"Operational","SCALE":"Small","SA_GOV_REG":"FLEURIEU AND KANGAROO ISLAND","LOCAL_GOVE":"KANGAROO ISLAND COUNCIL","SUBURB":"MACGILLIVRAY","LATITUDE":-35.7858872,"LONGITUDE":137.5522509,"DISPATCH":"ON"}},{"type":"Feature","geometry":{"type":"Point","coordinates":[132.1312866212312,-26.280395507552612]},"properties":{"OWNER_OPER":"DECS","STATION_NA":"Ernabella Anangu School","CAPACITY_M":null,"DEVELOPMEN":"In Service","UNIT_STATU":"Prime","SCALE":"Small","SA_GOV_REG":"FAR NORTH","LOCAL_GOVE":"ANANGU PITJANTJATJARA YANKUNYTJATJARA","SUBURB":"PUKATJA","LATITUDE":-26.28036577,"LONGITUDE":132.1311779,"DISPATCH":"Off-Grid"}},{"type":"Feature","geometry":{"type":"Point","coordinates":[132.1312866212312,-26.280395507552612]},"properties":{"OWNER_OPER":"Police","STATION_NA":"Ernabella Police Station","CAPACITY_M":null,"DEVELOPMEN":"In Service","UNIT_STATU":"Prime","SCALE":"Small","SA_GOV_REG":"FAR NORTH","LOCAL_GOVE":"ANANGU PITJANTJATJARA YANKUNYTJATJARA","SUBURB":"PUKATJA","LATITUDE":-26.28036577,"LONGITUDE":132.1311779,"DISPATCH":"Off-Grid"}},{"type":"Feature","geometry":{"type":"Point","coordinates":[136.7366943355338,-35.951782226982345]},"properties":{"OWNER_OPER":"Dept. Environment & Water","STATION_NA":"Flinders Chase National Park (Visitors Centre)","CAPACITY_M":0.01,"DEVELOPMEN":"In Service","UNIT_STATU":"Prime","SCALE":"Small","SA_GOV_REG":"FLEURIEU AND KANGAROO ISLAND","LOCAL_GOVE":"KANGAROO ISLAND COUNCIL","SUBURB":"FLINDERS CHASE","LATITUDE":-35.95178671,"LONGITUDE":136.7366936,"DISPATCH":"Off-Grid"}},{"type":"Feature","geometry":{"type":"Point","coordinates":[136.7310791020186,-35.95507812454565]},"properties":{"OWNER_OPER":"Dept. Environment & Water","STATION_NA":"Flinders Chase National Park (Workshop)","CAPACITY_M":0.01,"DEVELOPMEN":"In Service","UNIT_STATU":"Prime","SCALE":"Small","SA_GOV_REG":"FLEURIEU AND KANGAROO ISLAND","LOCAL_GOVE":"KANGAROO ISLAND COUNCIL","SUBURB":"FLINDERS CHASE","LATITUDE":-35.95512003,"LONGITUDE":136.7310603,"DISPATCH":"Off-Grid"}},{"type":"Feature","geometry":{"type":"Point","coordinates":[137.69592285202498,-35.85278320250751]},"properties":{"OWNER_OPER":"","STATION_NA":"Flour Cask Bay Sanctuary","CAPACITY_M":null,"DEVELOPMEN":"In Service","UNIT_STATU":"Operational","SCALE":"Small","SA_GOV_REG":"FLEURIEU AND KANGAROO ISLAND","LOCAL_GOVE":"KANGAROO ISLAND COUNCIL","SUBURB":"HAINES","LATITUDE":-35.85284126,"LONGITUDE":137.6958096,"DISPATCH":"Off-Grid"}},{"type":"Feature","geometry":{"type":"Point","coordinates":[132.43731689531057,-31.986816406355672]},"properties":{"OWNER_OPER":"","STATION_NA":"Fowlers Bay","CAPACITY_M":null,"DEVELOPMEN":"In Service","UNIT_STATU":"Prime","SCALE":"Small","SA_GOV_REG":"EYRE AND WESTERN","LOCAL_GOVE":"PASTORAL UNINCORPORATED AREA","SUBURB":"FOWLERS BAY","LATITUDE":-31.98679709,"LONGITUDE":132.4372649,"DISPATCH":"Off-Grid"}},{"type":"Feature","geometry":{"type":"Point","coordinates":[132.02868652325196,-26.765319823872346]},"properties":{"OWNER_OPER":"","STATION_NA":"Fregon Aboriginal Community","CAPACITY_M":null,"DEVELOPMEN":"In Service","UNIT_STATU":"Operational","SCALE":"Small","SA_GOV_REG":"FAR NORTH","LOCAL_GOVE":"ANANGU PITJANTJATJARA YANKUNYTJATJARA","SUBURB":"KALTJITI","LATITUDE":-26.76532263,"LONGITUDE":132.028539,"DISPATCH":"MINI"}},{"type":"Feature","geometry":{"type":"Point","coordinates":[140.61187744070526,-37.68682861339681]},"properties":{"OWNER_OPER":"","STATION_NA":"Glencoe Central Primary School","CAPACITY_M":null,"DEVELOPMEN":"In Service","UNIT_STATU":"Operational","SCALE":"Small","SA_GOV_REG":"LIMESTONE COAST","LOCAL_GOVE":"WATTLE RANGE COUNCIL","SUBURB":"GLENCOE","LATITUDE":-37.68680019,"LONGITUDE":140.6119329,"DISPATCH":"ON"}},{"type":"Feature","geometry":{"type":"Point","coordinates":[135.75268554702996,-30.967529297266992]},"properties":{"OWNER_OPER":"Dept. Energy & Mining - RAES Scheme","STATION_NA":"Glendambo Power Station","CAPACITY_M":0.41,"DEVELOPMEN":"In Service","UNIT_STATU":"Mini Grid - Prime","SCALE":"Small","SA_GOV_REG":"FAR NORTH","LOCAL_GOVE":"PASTORAL UNINCORPORATED AREA","SUBURB":"GLENDAMBO","LATITUDE":-30.96752968,"LONGITUDE":135.7525411,"DISPATCH":""}},{"type":"Feature","geometry":{"type":"Point","coordinates":[138.62792968697488,-34.94329834040667]},"properties":{"OWNER_OPER":"","STATION_NA":"Glenside Hosting Facility (Computer Room)","CAPACITY_M":3.89,"DEVELOPMEN":"In Service","UNIT_STATU":"Operational","SCALE":"Small","SA_GOV_REG":"EASTERN ADELAIDE","LOCAL_GOVE":"CITY OF BURNSIDE","SUBURB":"GLENSIDE","LATITUDE":-34.94333652,"LONGITUDE":138.6278575,"DISPATCH":"ON"}},{"type":"Feature","geometry":{"type":"Point","coordinates":[138.70092773367276,-34.78851318350888]},"properties":{"OWNER_OPER":"","STATION_NA":"Golden Grove Police Station","CAPACITY_M":0.09,"DEVELOPMEN":"In Service","UNIT_STATU":"Operational","SCALE":"Small","SA_GOV_REG":"BAROSSA, LIGHT AND LOWER NORTH","LOCAL_GOVE":"CITY OF TEA TREE GULLY","SUBURB":"GOLDEN GROVE","LATITUDE":-34.78851158,"LONGITUDE":138.7009075,"DISPATCH":"ON"}},{"type":"Feature","geometry":{"type":"Point","coordinates":[138.70947265602194,-34.79498291005905]},"properties":{"OWNER_OPER":"SAFECOM","STATION_NA":"Golden Grove SA Metropolitan Fire Service Station","CAPACITY_M":null,"DEVELOPMEN":"In Service","UNIT_STATU":"Standby","SCALE":"Small","SA_GOV_REG":"BAROSSA, LIGHT AND LOWER NORTH","LOCAL_GOVE":"CITY OF TEA TREE GULLY","SUBURB":"SURREY DOWNS","LATITUDE":-34.79498658,"LONGITUDE":138.7095492,"DISPATCH":"ON"}},{"type":"Feature","geometry":{"type":"Point","coordinates":[138.75189208982715,-33.34869384766091]},"properties":{"OWNER_OPER":"Energy Australia","STATION_NA":"Hallett","CAPACITY_M":203,"DEVELOPMEN":"In Service","UNIT_STATU":"Operational","SCALE":"Large","SA_GOV_REG":"YORKE AND MID NORTH","LOCAL_GOVE":"THE REGIONAL COUNCIL OF GOYDER","SUBURB":"CANOWIE","LATITUDE":-33.34866574,"LONGITUDE":138.7517432,"DISPATCH":""}},{"type":"Feature","geometry":{"type":"Point","coordinates":[138.75189208982715,-33.34869384766091]},"properties":{"OWNER_OPER":"Energy Australia","STATION_NA":"Hallett (RePower) (Upgrade)","CAPACITY_M":30,"DEVELOPMEN":"Under Development","UNIT_STATU":"Under Development","SCALE":"Large","SA_GOV_REG":"YORKE AND MID NORTH","LOCAL_GOVE":"THE REGIONAL COUNCIL OF GOYDER","SUBURB":"CANOWIE","LATITUDE":-33.34866574,"LONGITUDE":138.7517432,"DISPATCH":""}},{"type":"Feature","geometry":{"type":"Point","coordinates":[138.61853027259076,-34.86041259801897]},"properties":{"OWNER_OPER":"","STATION_NA":"Hampstead Rehabilitation Centre","CAPACITY_M":null,"DEVELOPMEN":"In Service","UNIT_STATU":"Operational","SCALE":"Small","SA_GOV_REG":"BAROSSA, LIGHT AND LOWER NORTH","LOCAL_GOVE":"CITY OF PORT ADELAIDE ENFIELD","SUBURB":"LIGHTSVIEW","LATITUDE":-34.86042822,"LONGITUDE":138.6185325,"DISPATCH":"ON"}},{"type":"Feature","geometry":{"type":"Point","coordinates":[138.65710449173878,-34.85760497976139]},"properties":{"OWNER_OPER":"","STATION_NA":"Holden Hill Police Headquarters","CAPACITY_M":0.2,"DEVELOPMEN":"In Service","UNIT_STATU":"Operational","SCALE":"Small","SA_GOV_REG":"BAROSSA, LIGHT AND LOWER NORTH","LOCAL_GOVE":"CITY OF PORT ADELAIDE ENFIELD","SUBURB":"HOLDEN HILL","LATITUDE":-34.85757545,"LONGITUDE":138.6569658,"DISPATCH":"ON"}},{"type":"Feature","geometry":{"type":"Point","coordinates":[139.40991210850734,-30.339477538597407]},"properties":{"OWNER_OPER":"Both owner and operator","STATION_NA":"Homestead Generator","CAPACITY_M":0.01,"DEVELOPMEN":"In Service","UNIT_STATU":"Prime","SCALE":"Small","SA_GOV_REG":"FAR NORTH","LOCAL_GOVE":"PASTORAL UNINCORPORATED AREA","SUBURB":"ARKAROOLA","LATITUDE":-30.33950535,"LONGITUDE":139.4097832,"DISPATCH":"Off-Grid"}},{"type":"Feature","geometry":{"type":"Point","coordinates":[138.58728027302777,-31.64172363282256]},"properties":{"OWNER_OPER":"Both owner and operator","STATION_NA":"Homestead Plant","CAPACITY_M":0.05,"DEVELOPMEN":"In Service","UNIT_STATU":"Prime","SCALE":"Small","SA_GOV_REG":"FAR NORTH","LOCAL_GOVE":"PASTORAL UNINCORPORATED AREA","SUBURB":"FLINDERS RANGES","LATITUDE":-31.64174953,"LONGITUDE":138.5873143,"DISPATCH":"ON"}},{"type":"Feature","geometry":{"type":"Point","coordinates":[140.7678833013672,-33.37628173793132]},"properties":{"OWNER_OPER":"Dept. Environment & Water","STATION_NA":"Hypurna Station","CAPACITY_M":0.01,"DEVELOPMEN":"In Service","UNIT_STATU":"Prime","SCALE":"Small","SA_GOV_REG":"MURRAY AND MALLEE","LOCAL_GOVE":"PASTORAL UNINCORPORATED AREA","SUBURB":"DANGGALI","LATITUDE":-33.37630609,"LONGITUDE":140.7677405,"DISPATCH":"Off-Grid"}},{"type":"Feature","geometry":{"type":"Point","coordinates":[133.32189941382217,-26.96740722663202]},"properties":{"OWNER_OPER":"","STATION_NA":"Indulkana Aboriginal Community","CAPACITY_M":null,"DEVELOPMEN":"In Service","UNIT_STATU":"Operational","SCALE":"Small","SA_GOV_REG":"FAR NORTH","LOCAL_GOVE":"ANANGU PITJANTJATJARA YANKUNYTJATJARA","SUBURB":"IWANTJA","LATITUDE":-26.96742607,"LONGITUDE":133.3217838,"DISPATCH":"MINI"}},{"type":"Feature","geometry":{"type":"Point","coordinates":[133.3137207032022,-26.96789550793767]},"properties":{"OWNER_OPER":"","STATION_NA":"Indulkana Police Station","CAPACITY_M":null,"DEVELOPMEN":"In Service","UNIT_STATU":"Operational","SCALE":"Small","SA_GOV_REG":"FAR NORTH","LOCAL_GOVE":"ANANGU PITJANTJATJARA YANKUNYTJATJARA","SUBURB":"IWANTJA","LATITUDE":-26.96789258,"LONGITUDE":133.3136261,"DISPATCH":"MINI"}},{"type":"Feature","geometry":{"type":"Point","coordinates":[140.74468994084782,-27.744323729743144]},"properties":{"OWNER_OPER":"Dept. Environment & Water","STATION_NA":"Innamincka Regional Reserve","CAPACITY_M":0.02,"DEVELOPMEN":"In Service","UNIT_STATU":"Operational","SCALE":"Small","SA_GOV_REG":"FAR NORTH","LOCAL_GOVE":"PASTORAL UNINCORPORATED AREA","SUBURB":"INNAMINCKA","LATITUDE":-27.74431984,"LONGITUDE":140.7446074,"DISPATCH":"MINI"}},{"type":"Feature","geometry":{"type":"Point","coordinates":[136.89672851621754,-35.22637939511958]},"properties":{"OWNER_OPER":"","STATION_NA":"Innes National Park","CAPACITY_M":null,"DEVELOPMEN":"In Service","UNIT_STATU":"Operational","SCALE":"Small","SA_GOV_REG":"YORKE AND MID NORTH","LOCAL_GOVE":"YORKE PENINSULA COUNCIL","SUBURB":"INNESTON","LATITUDE":-35.22645656,"LONGITUDE":136.8966664,"DISPATCH":"Off-Grid"}},{"type":"Feature","geometry":{"type":"Point","coordinates":[132.18688964828948,-30.892700194922895]},"properties":{"OWNER_OPER":"","STATION_NA":"Jacinth Ambrosia","CAPACITY_M":6.8,"DEVELOPMEN":"In Service","UNIT_STATU":"Off Grid","SCALE":"Large","SA_GOV_REG":"EYRE AND WESTERN","LOCAL_GOVE":"PASTORAL UNINCORPORATED AREA","SUBURB":"YELLABINNA","LATITUDE":-30.89272266,"LONGITUDE":132.1868658,"DISPATCH":""}},{"type":"Feature","geometry":{"type":"Point","coordinates":[138.6165161125798,-33.21197509807297]},"properties":{"OWNER_OPER":"","STATION_NA":"Jamestown Hospital","CAPACITY_M":null,"DEVELOPMEN":"In Service","UNIT_STATU":"Operational","SCALE":"Small","SA_GOV_REG":"YORKE AND MID NORTH","LOCAL_GOVE":"NORTHERN AREAS COUNCIL","SUBURB":"JAMESTOWN","LATITUDE":-33.21202815,"LONGITUDE":138.6164437,"DISPATCH":"ON"}},{"type":"Feature","geometry":{"type":"Point","coordinates":[140.2460937499693,-37.33728027332444]},"properties":{"OWNER_OPER":"","STATION_NA":"Kangaroo Inn Area School","CAPACITY_M":null,"DEVELOPMEN":"In Service","UNIT_STATU":"Operational","SCALE":"Small","SA_GOV_REG":"LIMESTONE COAST","LOCAL_GOVE":"WATTLE RANGE COUNCIL","SUBURB":"KANGAROO INN","LATITUDE":-37.33727779,"LONGITUDE":140.2461022,"DISPATCH":"ON"}},{"type":"Feature","geometry":{"type":"Point","coordinates":[137.433288574362,-35.59558105499519]},"properties":{"OWNER_OPER":"Kangaroo Island Abalone","STATION_NA":"Kangaroo Island Abalone","CAPACITY_M":1.11,"DEVELOPMEN":"In Service","UNIT_STATU":"Back-up","SCALE":"Small","SA_GOV_REG":"FLEURIEU AND KANGAROO ISLAND","LOCAL_GOVE":"KANGAROO ISLAND COUNCIL","SUBURB":"WISANGER","LATITUDE":-35.59556942,"LONGITUDE":137.4331919,"DISPATCH":"ON"}},{"type":"Feature","geometry":{"type":"Point","coordinates":[137.78192138661132,-35.772888183742054]},"properties":{"OWNER_OPER":"","STATION_NA":"Kangaroo Island District Council","CAPACITY_M":0.04,"DEVELOPMEN":"In Service","UNIT_STATU":"Operational","SCALE":"Small","SA_GOV_REG":"FLEURIEU AND KANGAROO ISLAND","LOCAL_GOVE":"KANGAROO ISLAND COUNCIL","SUBURB":"AMERICAN RIVER","LATITUDE":-35.77291882,"LONGITUDE":137.7818755,"DISPATCH":"ON"}},{"type":"Feature","geometry":{"type":"Point","coordinates":[132.44769287130612,-26.327514648049885]},"properties":{"OWNER_OPER":"","STATION_NA":"Kenmore Park Anangu School","CAPACITY_M":null,"DEVELOPMEN":"In Service","UNIT_STATU":"Operational","SCALE":"Small","SA_GOV_REG":"FAR NORTH","LOCAL_GOVE":"ANANGU PITJANTJATJARA YANKUNYTJATJARA","SUBURB":"YUNYARINYI","LATITUDE":-26.32750792,"LONGITUDE":132.4476883,"DISPATCH":"MINI"}},{"type":"Feature","geometry":{"type":"Point","coordinates":[135.31652832048906,-30.907409667881268]},"properties":{"OWNER_OPER":"Dept. Energy & Mining - RAES Scheme","STATION_NA":"Kingoonya Power Station","CAPACITY_M":0.16,"DEVELOPMEN":"In Service","UNIT_STATU":"Mini Grid - Prime","SCALE":"Small","SA_GOV_REG":"FAR NORTH","LOCAL_GOVE":"PASTORAL UNINCORPORATED AREA","SUBURB":"KINGOONYA","LATITUDE":-30.90740438,"LONGITUDE":135.3165372,"DISPATCH":""}},{"type":"Feature","geometry":{"type":"Point","coordinates":[137.6397094730845,-35.65429687525216]},"properties":{"OWNER_OPER":"","STATION_NA":"Kingscote Drakes Supermarket","CAPACITY_M":0.14,"DEVELOPMEN":"In Service","UNIT_STATU":"Operational","SCALE":"Small","SA_GOV_REG":"FLEURIEU AND KANGAROO ISLAND","LOCAL_GOVE":"KANGAROO ISLAND COUNCIL","SUBURB":"KINGSCOTE","LATITUDE":-35.654385999999995,"LONGITUDE":137.6395885,"DISPATCH":""}},{"type":"Feature","geometry":{"type":"Point","coordinates":[137.64147949194262,-35.65258789118235]},"properties":{"OWNER_OPER":"","STATION_NA":"Kingscote Hospital","CAPACITY_M":0.28,"DEVELOPMEN":"In Service","UNIT_STATU":"Operational","SCALE":"Small","SA_GOV_REG":"FLEURIEU AND KANGAROO ISLAND","LOCAL_GOVE":"KANGAROO ISLAND COUNCIL","SUBURB":"KINGSCOTE","LATITUDE":-35.65264571,"LONGITUDE":137.6413999,"DISPATCH":"ON"}},{"type":"Feature","geometry":{"type":"Point","coordinates":[137.60528564453477,-35.666381836317555]},"properties":{"OWNER_OPER":"SA Power Networks","STATION_NA":"Kingscote Power Station","CAPACITY_M":6,"DEVELOPMEN":"In Service","UNIT_STATU":"Back-up","SCALE":"Large","SA_GOV_REG":"FLEURIEU AND KANGAROO ISLAND","LOCAL_GOVE":"KANGAROO ISLAND COUNCIL","SUBURB":"BROWNLOW KI","LATITUDE":-35.66641894,"LONGITUDE":137.6052417,"DISPATCH":"ON"}},{"type":"Feature","geometry":{"type":"Point","coordinates":[138.30090331975157,-33.17761230531136]},"properties":{"OWNER_OPER":"","STATION_NA":"Laura Hospital Inc","CAPACITY_M":null,"DEVELOPMEN":"In Service","UNIT_STATU":"Operational","SCALE":"Small","SA_GOV_REG":"YORKE AND MID NORTH","LOCAL_GOVE":"NORTHERN AREAS COUNCIL","SUBURB":"LAURA","LATITUDE":-33.17765891,"LONGITUDE":138.3008244,"DISPATCH":"ON"}},{"type":"Feature","geometry":{"type":"Point","coordinates":[138.49108886681051,-35.10968017606416]},"properties":{"OWNER_OPER":"Snowy Hydro","STATION_NA":"Lonsdale","CAPACITY_M":20.7,"DEVELOPMEN":"In Service","UNIT_STATU":"Operational","SCALE":"Large","SA_GOV_REG":"SOUTHERN ADELAIDE","LOCAL_GOVE":"CITY OF ONKAPARINGA","SUBURB":"LONSDALE","LATITUDE":-35.10965502,"LONGITUDE":138.4910143,"DISPATCH":""}},{"type":"Feature","geometry":{"type":"Point","coordinates":[140.58630371144568,-34.442016601846944]},"properties":{"OWNER_OPER":"","STATION_NA":"Loxton Agriculture Research Centre","CAPACITY_M":null,"DEVELOPMEN":"In Service","UNIT_STATU":"Operational","SCALE":"Small","SA_GOV_REG":"MURRAY AND MALLEE","LOCAL_GOVE":"THE DC OF LOXTON WAIKERIE","SUBURB":"LOXTON","LATITUDE":-34.44198668,"LONGITUDE":140.586307,"DISPATCH":"ON"}},{"type":"Feature","geometry":{"type":"Point","coordinates":[138.66491699162953,-34.74768066419716]},"properties":{"OWNER_OPER":"","STATION_NA":"Lyell Mcewin Hospital","CAPACITY_M":null,"DEVELOPMEN":"In Service","UNIT_STATU":"Operational","SCALE":"Small","SA_GOV_REG":"BAROSSA, LIGHT AND LOWER NORTH","LOCAL_GOVE":"CITY OF PLAYFORD","SUBURB":"ELIZABETH VALE","LATITUDE":-34.74765615,"LONGITUDE":138.6648407,"DISPATCH":"ON"}},{"type":"Feature","geometry":{"type":"Point","coordinates":[138.34967040953052,-30.287780761984493]},"properties":{"OWNER_OPER":"","STATION_NA":"Lyndhurst Public Toilets","CAPACITY_M":null,"DEVELOPMEN":"In Service","UNIT_STATU":"Operational","SCALE":"Small","SA_GOV_REG":"FAR NORTH","LOCAL_GOVE":"PASTORAL UNINCORPORATED AREA","SUBURB":"LYNDHURST","LATITUDE":-30.28779577,"LONGITUDE":138.3496833,"DISPATCH":"MINI"}},{"type":"Feature","geometry":{"type":"Point","coordinates":[138.68792724578418,-34.906677246481365]},"properties":{"OWNER_OPER":"","STATION_NA":"Magill Training Centre","CAPACITY_M":null,"DEVELOPMEN":"In Service","UNIT_STATU":"Operational","SCALE":"Small","SA_GOV_REG":"ADELAIDE HILLS","LOCAL_GOVE":"ADELAIDE HILLS COUNCIL","SUBURB":"WOODFORDE","LATITUDE":-34.90673372,"LONGITUDE":138.6879436,"DISPATCH":"ON"}},{"type":"Feature","geometry":{"type":"Point","coordinates":[140.0490722656309,-32.51251220719894]},"properties":{"OWNER_OPER":"MK & JE Francis","STATION_NA":"Maldorky Station","CAPACITY_M":0.04,"DEVELOPMEN":"In Service","UNIT_STATU":"Prime","SCALE":"Small","SA_GOV_REG":"FAR NORTH","LOCAL_GOVE":"PASTORAL UNINCORPORATED AREA","SUBURB":"OULNINA","LATITUDE":-32.51248641,"LONGITUDE":140.0491073,"DISPATCH":"Off-Grid"}},{"type":"Feature","geometry":{"type":"Point","coordinates":[139.98547363331727,-32.43157959003395]},"properties":{"OWNER_OPER":"Dept. Energy & Mining - RAES Scheme","STATION_NA":"Manna Hill Power Station","CAPACITY_M":0.1,"DEVELOPMEN":"In Service","UNIT_STATU":"Mini Grid - Prime","SCALE":"Small","SA_GOV_REG":"FAR NORTH","LOCAL_GOVE":"PASTORAL UNINCORPORATED AREA","SUBURB":"MANNA HILL","LATITUDE":-32.43160814,"LONGITUDE":139.9854134,"DISPATCH":""}},{"type":"Feature","geometry":{"type":"Point","coordinates":[133.62408447324447,-27.30059814546439]},"properties":{"OWNER_OPER":"DTEI","STATION_NA":"Marla Lot 49 Quail Street","CAPACITY_M":null,"DEVELOPMEN":"In Service","UNIT_STATU":"Prime","SCALE":"Small","SA_GOV_REG":"FAR NORTH","LOCAL_GOVE":"PASTORAL UNINCORPORATED AREA","SUBURB":"MARLA","LATITUDE":-27.30063398,"LONGITUDE":133.6239965,"DISPATCH":"MINI"}},{"type":"Feature","geometry":{"type":"Point","coordinates":[133.61932372976412,-27.29968261664129]},"properties":{"OWNER_OPER":"","STATION_NA":"Marla Police Station","CAPACITY_M":null,"DEVELOPMEN":"In Service","UNIT_STATU":"Operational","SCALE":"Small","SA_GOV_REG":"FAR NORTH","LOCAL_GOVE":"PASTORAL UNINCORPORATED AREA","SUBURB":"MARLA","LATITUDE":-27.29976714,"LONGITUDE":133.6192195,"DISPATCH":"MINI"}},{"type":"Feature","geometry":{"type":"Point","coordinates":[133.6267089841374,-27.30157470707576]},"properties":{"OWNER_OPER":"Dept. Energy & Mining - RAES Scheme","STATION_NA":"Marla Power Station","CAPACITY_M":0.37,"DEVELOPMEN":"In Service","UNIT_STATU":"Mini Grid - Prime","SCALE":"Small","SA_GOV_REG":"FAR NORTH","LOCAL_GOVE":"PASTORAL UNINCORPORATED AREA","SUBURB":"MARLA","LATITUDE":-27.30164611,"LONGITUDE":133.6266547,"DISPATCH":""}},{"type":"Feature","geometry":{"type":"Point","coordinates":[138.06207275449015,-29.64880371122547]},"properties":{"OWNER_OPER":"","STATION_NA":"Marree Aboriginal School","CAPACITY_M":null,"DEVELOPMEN":"In Service","UNIT_STATU":"Operational","SCALE":"Small","SA_GOV_REG":"FAR NORTH","LOCAL_GOVE":"PASTORAL UNINCORPORATED AREA","SUBURB":"MARREE","LATITUDE":-29.6488241,"LONGITUDE":138.0620966,"DISPATCH":"MINI"}},{"type":"Feature","geometry":{"type":"Point","coordinates":[138.06207275449015,-29.64880371122547]},"properties":{"OWNER_OPER":"DTEI","STATION_NA":"Marree Lot 46 First Street","CAPACITY_M":null,"DEVELOPMEN":"In Service","UNIT_STATU":"Prime","SCALE":"Small","SA_GOV_REG":"FAR NORTH","LOCAL_GOVE":"PASTORAL UNINCORPORATED AREA","SUBURB":"MARREE","LATITUDE":-29.6488241,"LONGITUDE":138.0620966,"DISPATCH":"MINI"}},{"type":"Feature","geometry":{"type":"Point","coordinates":[138.06207275449015,-29.648681640649045]},"properties":{"OWNER_OPER":"","STATION_NA":"Marree Police Station","CAPACITY_M":null,"DEVELOPMEN":"In Service","UNIT_STATU":"Operational","SCALE":"Small","SA_GOV_REG":"FAR NORTH","LOCAL_GOVE":"PASTORAL UNINCORPORATED AREA","SUBURB":"MARREE","LATITUDE":-29.64869077,"LONGITUDE":138.0620244,"DISPATCH":"MINI"}},{"type":"Feature","geometry":{"type":"Point","coordinates":[138.05389404287018,-29.648498535284432]},"properties":{"OWNER_OPER":"Dept. Energy & Mining - RAES Scheme","STATION_NA":"Marree Power Station","CAPACITY_M":0.5,"DEVELOPMEN":"In Service","UNIT_STATU":"Mini Grid - Prime","SCALE":"Small","SA_GOV_REG":"FAR NORTH","LOCAL_GOVE":"PASTORAL UNINCORPORATED AREA","SUBURB":"MARREE","LATITUDE":-29.64851875,"LONGITUDE":138.0538248,"DISPATCH":""}},{"type":"Feature","geometry":{"type":"Point","coordinates":[138.06530761726526,-29.646789551214567]},"properties":{"OWNER_OPER":"","STATION_NA":"Marree Public Toilets","CAPACITY_M":null,"DEVELOPMEN":"In Service","UNIT_STATU":"Operational","SCALE":"Small","SA_GOV_REG":"FAR NORTH","LOCAL_GOVE":"PASTORAL UNINCORPORATED AREA","SUBURB":"MARREE","LATITUDE":-29.64678519,"LONGITUDE":138.065166,"DISPATCH":"MINI"}},{"type":"Feature","geometry":{"type":"Point","coordinates":[132.70928955056945,-27.004211425921994]},"properties":{"OWNER_OPER":"DTEI","STATION_NA":"Mimili 2","CAPACITY_M":null,"DEVELOPMEN":"In Service","UNIT_STATU":"Prime","SCALE":"Small","SA_GOV_REG":"FAR NORTH","LOCAL_GOVE":"ANANGU PITJANTJATJARA YANKUNYTJATJARA","SUBURB":"MIMILI","LATITUDE":-27.00431388,"LONGITUDE":132.7092287,"DISPATCH":"MINI"}},{"type":"Feature","geometry":{"type":"Point","coordinates":[132.70947265593406,-27.0039062499809]},"properties":{"OWNER_OPER":"","STATION_NA":"Mimili Aboriginal Community","CAPACITY_M":null,"DEVELOPMEN":"In Service","UNIT_STATU":"Operational","SCALE":"Small","SA_GOV_REG":"FAR NORTH","LOCAL_GOVE":"ANANGU PITJANTJATJARA YANKUNYTJATJARA","SUBURB":"MIMILI","LATITUDE":-27.00397221,"LONGITUDE":132.7093954,"DISPATCH":"MINI"}},{"type":"Feature","geometry":{"type":"Point","coordinates":[132.71472167972001,-27.006774902026734]},"properties":{"OWNER_OPER":"DECS","STATION_NA":"Mimili Anangu School","CAPACITY_M":null,"DEVELOPMEN":"In Service","UNIT_STATU":"Prime","SCALE":"Small","SA_GOV_REG":"FAR NORTH","LOCAL_GOVE":"ANANGU PITJANTJATJARA YANKUNYTJATJARA","SUBURB":"MIMILI","LATITUDE":-27.00680277,"LONGITUDE":132.7146455,"DISPATCH":"MINI"}},{"type":"Feature","geometry":{"type":"Point","coordinates":[135.15112304744298,-32.83569335876507]},"properties":{"OWNER_OPER":"PIRSA","STATION_NA":"Minnipa Agriculture Research Centre","CAPACITY_M":null,"DEVELOPMEN":"In Service","UNIT_STATU":"Operational","SCALE":"Small","SA_GOV_REG":"EYRE AND WESTERN","LOCAL_GOVE":"WUDINNA DISTRICT COUNCIL","SUBURB":"MINNIPA","LATITUDE":-32.83571124,"LONGITUDE":135.1510742,"DISPATCH":"ON"}},{"type":"Feature","geometry":{"type":"Point","coordinates":[133.30432128881807,-27.320312500055877]},"properties":{"OWNER_OPER":"DECS","STATION_NA":"Mintabie Area School","CAPACITY_M":null,"DEVELOPMEN":"In Service","UNIT_STATU":"Operational","SCALE":"Small","SA_GOV_REG":"FAR NORTH","LOCAL_GOVE":"ANANGU PITJANTJATJARA YANKUNYTJATJARA","SUBURB":"ANANGU PITJANTJATJARA YANKUNYTJATJARA","LATITUDE":-27.32034429,"LONGITUDE":133.3042569,"DISPATCH":"Off-Grid"}},{"type":"Feature","geometry":{"type":"Point","coordinates":[139.23468017555956,-35.114624022909084]},"properties":{"OWNER_OPER":"DCS","STATION_NA":"Mobilong Prison","CAPACITY_M":null,"DEVELOPMEN":"In Service","UNIT_STATU":"Standby","SCALE":"Small","SA_GOV_REG":"MURRAY AND MALLEE","LOCAL_GOVE":"THE RURAL CITY OF MURRAY BRIDGE","SUBURB":"MURRAY BRIDGE","LATITUDE":-35.11461167,"LONGITUDE":139.2346182,"DISPATCH":"ON"}},{"type":"Feature","geometry":{"type":"Point","coordinates":[140.20471191356364,-28.115600586417884]},"properties":{"OWNER_OPER":"","STATION_NA":"Moomba","CAPACITY_M":20,"DEVELOPMEN":"In Service","UNIT_STATU":"Off Grid","SCALE":"Large","SA_GOV_REG":"FAR NORTH","LOCAL_GOVE":"PASTORAL UNINCORPORATED AREA","SUBURB":"GIDGEALPA","LATITUDE":-28.11559844,"LONGITUDE":140.204601,"DISPATCH":"Off-Grid"}},{"type":"Feature","geometry":{"type":"Point","coordinates":[140.7987060554127,-37.83300781315717]},"properties":{"OWNER_OPER":"","STATION_NA":"Mount Gambier Forestry SA Headquarters","CAPACITY_M":null,"DEVELOPMEN":"In Service","UNIT_STATU":"Operational","SCALE":"Small","SA_GOV_REG":"LIMESTONE COAST","LOCAL_GOVE":"CITY OF MOUNT GAMBIER","SUBURB":"MOUNT GAMBIER","LATITUDE":-37.83300569,"LONGITUDE":140.7986497,"DISPATCH":"ON"}},{"type":"Feature","geometry":{"type":"Point","coordinates":[140.77807617199812,-37.83398437476848]},"properties":{"OWNER_OPER":"","STATION_NA":"Mount Gambier Magistrates Court","CAPACITY_M":null,"DEVELOPMEN":"In Service","UNIT_STATU":"Operational","SCALE":"Small","SA_GOV_REG":"LIMESTONE COAST","LOCAL_GOVE":"CITY OF MOUNT GAMBIER","SUBURB":"MOUNT GAMBIER","LATITUDE":-37.83403629,"LONGITUDE":140.7780413,"DISPATCH":"ON"}},{"type":"Feature","geometry":{"type":"Point","coordinates":[140.7778930656334,-37.83319091752179]},"properties":{"OWNER_OPER":"","STATION_NA":"Mount Gambier Police Station","CAPACITY_M":null,"DEVELOPMEN":"In Service","UNIT_STATU":"Operational","SCALE":"Small","SA_GOV_REG":"LIMESTONE COAST","LOCAL_GOVE":"CITY OF MOUNT GAMBIER","SUBURB":"MOUNT GAMBIER","LATITUDE":-37.83325573,"LONGITUDE":140.7778108,"DISPATCH":"ON"}},{"type":"Feature","geometry":{"type":"Point","coordinates":[140.68487548840312,-37.85839843805206]},"properties":{"OWNER_OPER":"","STATION_NA":"Mount Gambier Prison","CAPACITY_M":null,"DEVELOPMEN":"In Service","UNIT_STATU":"Standby","SCALE":"Small","SA_GOV_REG":"LIMESTONE COAST","LOCAL_GOVE":"THE DC OF GRANT","SUBURB":"MOORAK","LATITUDE":-37.85840291,"LONGITUDE":140.6847274,"DISPATCH":"ON"}},{"type":"Feature","geometry":{"type":"Point","coordinates":[140.78509521464207,-37.83319091752179]},"properties":{"OWNER_OPER":"","STATION_NA":"Mount Gambier SA Metropolitan Fire Service Station","CAPACITY_M":null,"DEVELOPMEN":"In Service","UNIT_STATU":"Back-up","SCALE":"Small","SA_GOV_REG":"LIMESTONE COAST","LOCAL_GOVE":"CITY OF MOUNT GAMBIER","SUBURB":"MOUNT GAMBIER","LATITUDE":-37.83322517,"LONGITUDE":140.7851052,"DISPATCH":"ON"}},{"type":"Feature","geometry":{"type":"Point","coordinates":[138.71832275431223,-34.98797607437558]},"properties":{"OWNER_OPER":"Dept. Environment & Water","STATION_NA":"Mount Lofty Botanic Gardens","CAPACITY_M":null,"DEVELOPMEN":"In Service","UNIT_STATU":"Operational","SCALE":"Small","SA_GOV_REG":"ADELAIDE HILLS","LOCAL_GOVE":"ADELAIDE HILLS COUNCIL","SUBURB":"CRAFERS","LATITUDE":-34.98805324,"LONGITUDE":138.7183408,"DISPATCH":"ON"}},{"type":"Feature","geometry":{"type":"Point","coordinates":[138.70928955065733,-34.97399902287577]},"properties":{"OWNER_OPER":"Dept. Environment & Water","STATION_NA":"Mount Lofty Summit Visitors Centre","CAPACITY_M":null,"DEVELOPMEN":"In Service","UNIT_STATU":"Operational","SCALE":"Small","SA_GOV_REG":"ADELAIDE HILLS","LOCAL_GOVE":"ADELAIDE HILLS COUNCIL","SUBURB":"CLELAND","LATITUDE":-34.97404768,"LONGITUDE":138.7092547,"DISPATCH":"ON"}},{"type":"Feature","geometry":{"type":"Point","coordinates":[138.2330932620515,-29.732604980436292]},"properties":{"OWNER_OPER":"Mundowdna Proprietors","STATION_NA":"Mundownda Power House 1","CAPACITY_M":0.05,"DEVELOPMEN":"In Service","UNIT_STATU":"Operational","SCALE":"Small","SA_GOV_REG":"FAR NORTH","LOCAL_GOVE":"PASTORAL UNINCORPORATED AREA","SUBURB":"MUNDOWDNA","LATITUDE":-29.7326913,"LONGITUDE":138.2329731,"DISPATCH":"Off-Grid"}},{"type":"Feature","geometry":{"type":"Point","coordinates":[130.05932617190354,-26.173889160128056]},"properties":{"OWNER_OPER":"","STATION_NA":"Murputja Anangu School","CAPACITY_M":null,"DEVELOPMEN":"In Service","UNIT_STATU":"Operational","SCALE":"Small","SA_GOV_REG":"FAR NORTH","LOCAL_GOVE":"ANANGU PITJANTJATJARA YANKUNYTJATJARA","SUBURB":"ANANGU PITJANTJATJARA YANKUNYTJATJARA","LATITUDE":-26.17395568,"LONGITUDE":130.0592119,"DISPATCH":"MINI"}},{"type":"Feature","geometry":{"type":"Point","coordinates":[130.18109130938035,-26.164184569802842]},"properties":{"OWNER_OPER":"Dept. Energy & Mining - RAES Scheme","STATION_NA":"Murputja Power Station","CAPACITY_M":0.44,"DEVELOPMEN":"In Service","UNIT_STATU":"Mini Grid - Prime","SCALE":"Small","SA_GOV_REG":"FAR NORTH","LOCAL_GOVE":"ANANGU PITJANTJATJARA YANKUNYTJATJARA","SUBURB":"MURPUTJA","LATITUDE":-26.16416808,"LONGITUDE":130.1811089,"DISPATCH":"MINI"}},{"type":"Feature","geometry":{"type":"Point","coordinates":[138.5524902337487,-34.943176269830246]},"properties":{"OWNER_OPER":"","STATION_NA":"Netley Commercial Park","CAPACITY_M":0.2,"DEVELOPMEN":"In Service","UNIT_STATU":"Operational","SCALE":"Small","SA_GOV_REG":"WESTERN ADELAIDE","LOCAL_GOVE":"CITY OF WEST TORRENS","SUBURB":"NETLEY","LATITUDE":-34.94318948,"LONGITUDE":138.5523854,"DISPATCH":"ON"}},{"type":"Feature","geometry":{"type":"Point","coordinates":[138.55328369099539,-34.94628906302893]},"properties":{"OWNER_OPER":"","STATION_NA":"Netley Police Complex","CAPACITY_M":0.09,"DEVELOPMEN":"In Service","UNIT_STATU":"Prime","SCALE":"Small","SA_GOV_REG":"WESTERN ADELAIDE","LOCAL_GOVE":"CITY OF WEST TORRENS","SUBURB":"NETLEY","LATITUDE":-34.94631172,"LONGITUDE":138.5531355,"DISPATCH":"ON"}},{"type":"Feature","geometry":{"type":"Point","coordinates":[139.26672363336922,-35.750000000163766]},"properties":{"OWNER_OPER":"Dept. Environment & Water","STATION_NA":"Noonameena","CAPACITY_M":null,"DEVELOPMEN":"In Service","UNIT_STATU":"Prime","SCALE":"Small","SA_GOV_REG":"MURRAY AND MALLEE","LOCAL_GOVE":"COORONG DISTRICT COUNCIL","SUBURB":"MENINGIE","LATITUDE":-35.74998666,"LONGITUDE":139.2667071,"DISPATCH":"Off-Grid"}},{"type":"Feature","geometry":{"type":"Point","coordinates":[138.6323242187259,-34.91870117175847]},"properties":{"OWNER_OPER":"","STATION_NA":"Norwood Police Station","CAPACITY_M":0,"DEVELOPMEN":"In Service","UNIT_STATU":"Prime","SCALE":"Small","SA_GOV_REG":"EASTERN ADELAIDE","LOCAL_GOVE":"THE CITY OF NORWOOD PAYNEHAM AND ST PETERS","SUBURB":"NORWOOD","LATITUDE":-34.9187896,"LONGITUDE":138.6322048,"DISPATCH":"ON"}},{"type":"Feature","geometry":{"type":"Point","coordinates":[132.2285156248479,-31.79541015553258]},"properties":{"OWNER_OPER":"Dept. Energy & Mining - RAES Scheme","STATION_NA":"Nundroo Power Station","CAPACITY_M":0.36,"DEVELOPMEN":"In Service","UNIT_STATU":"Mini Grid - Prime","SCALE":"Small","SA_GOV_REG":"EYRE AND WESTERN","LOCAL_GOVE":"PASTORAL UNINCORPORATED AREA","SUBURB":"COORABIE","LATITUDE":-31.79540935,"LONGITUDE":132.228476,"DISPATCH":"MINI"}},{"type":"Feature","geometry":{"type":"Point","coordinates":[130.73889160182148,-29.402221679861498]},"properties":{"OWNER_OPER":"Dept. Energy & Mining - RAES Scheme","STATION_NA":"Oak Valley Power Station","CAPACITY_M":0.44,"DEVELOPMEN":"In Service","UNIT_STATU":"Mini Grid - Prime","SCALE":"Small","SA_GOV_REG":"EYRE AND WESTERN","LOCAL_GOVE":"MARALINGA TJARUTJA","SUBURB":"OAK VALLEY","LATITUDE":-29.40224007,"LONGITUDE":130.7388936,"DISPATCH":"MINI"},"id":104},{"type":"Feature","geometry":{"type":"Point","coordinates":[140.73907470733263,-33.001708983693334]},"properties":{"OWNER_OPER":"Both owner and operator","STATION_NA":"Oakvale Pastoral Co Pty Ltd (House)","CAPACITY_M":null,"DEVELOPMEN":"In Service","UNIT_STATU":"Operational","SCALE":"Small","SA_GOV_REG":"MURRAY AND MALLEE","LOCAL_GOVE":"PASTORAL UNINCORPORATED AREA","SUBURB":"OAKVALE STATION","LATITUDE":-33.00174004,"LONGITUDE":140.7389903,"DISPATCH":"Off-Grid"}},{"type":"Feature","geometry":{"type":"Point","coordinates":[140.69671630931566,-33.021301269708374]},"properties":{"OWNER_OPER":"Both owner and operator","STATION_NA":"Oakvale Pastoral Co Pty Ltd (Plant)","CAPACITY_M":null,"DEVELOPMEN":"In Service","UNIT_STATU":"Operational","SCALE":"Small","SA_GOV_REG":"MURRAY AND MALLEE","LOCAL_GOVE":"PASTORAL UNINCORPORATED AREA","SUBURB":"OAKVALE STATION","LATITUDE":-33.02138827,"LONGITUDE":140.6966889,"DISPATCH":"Off-Grid"}},{"type":"Feature","geometry":{"type":"Point","coordinates":[135.44970703136096,-27.545776366699556]},"properties":{"OWNER_OPER":"DECS","STATION_NA":"Oodnadatta Aboriginal School","CAPACITY_M":null,"DEVELOPMEN":"In Service","UNIT_STATU":"Operational","SCALE":"Small","SA_GOV_REG":"FAR NORTH","LOCAL_GOVE":"PASTORAL UNINCORPORATED AREA","SUBURB":"OODNADATTA","LATITUDE":-27.54582207,"LONGITUDE":135.4496333,"DISPATCH":"MINI"}},{"type":"Feature","geometry":{"type":"Point","coordinates":[135.44409179684567,-27.545715331911367]},"properties":{"OWNER_OPER":"SAPOL","STATION_NA":"Oodnadatta Police Station","CAPACITY_M":null,"DEVELOPMEN":"In Service","UNIT_STATU":"Operational","SCALE":"Small","SA_GOV_REG":"FAR NORTH","LOCAL_GOVE":"PASTORAL UNINCORPORATED AREA","SUBURB":"OODNADATTA","LATITUDE":-27.54571929,"LONGITUDE":135.4440305,"DISPATCH":"MINI"}},{"type":"Feature","geometry":{"type":"Point","coordinates":[135.44049072334144,-27.556823730365352]},"properties":{"OWNER_OPER":"Dept. Energy & Mining - RAES Scheme","STATION_NA":"Oodnadatta Power Station","CAPACITY_M":0.6,"DEVELOPMEN":"In Service","UNIT_STATU":"Mini Grid - Prime","SCALE":"Small","SA_GOV_REG":"FAR NORTH","LOCAL_GOVE":"PASTORAL UNINCORPORATED AREA","SUBURB":"OODNADATTA","LATITUDE":-27.55682398,"LONGITUDE":135.4404585,"DISPATCH":"MINI"}},{"type":"Feature","geometry":{"type":"Point","coordinates":[138.71850585867685,-31.365417479600865]},"properties":{"OWNER_OPER":"Dept. Environment & Water","STATION_NA":"Oraparinna","CAPACITY_M":0.08,"DEVELOPMEN":"In Service","UNIT_STATU":"Prime","SCALE":"Small","SA_GOV_REG":"FAR NORTH","LOCAL_GOVE":"PASTORAL UNINCORPORATED AREA","SUBURB":"FLINDERS RANGES","LATITUDE":-31.36540313,"LONGITUDE":138.7184242,"DISPATCH":"Off-Grid"}},{"type":"Feature","geometry":{"type":"Point","coordinates":[138.6074829099249,-32.73828124978371]},"properties":{"OWNER_OPER":"","STATION_NA":"Orroroo And District Hospital Inc","CAPACITY_M":null,"DEVELOPMEN":"In Service","UNIT_STATU":"Standby","SCALE":"Small","SA_GOV_REG":"YORKE AND MID NORTH","LOCAL_GOVE":"THE DC OF ORROROO CARRIETON","SUBURB":"ORROROO","LATITUDE":-32.73833662,"LONGITUDE":138.6074018,"DISPATCH":"ON"}},{"type":"Feature","geometry":{"type":"Point","coordinates":[135.6273193360488,-32.65649414058373]},"properties":{"OWNER_OPER":"Both owner and operator","STATION_NA":"Paney Homestead","CAPACITY_M":0.02,"DEVELOPMEN":"In Service","UNIT_STATU":"Operational","SCALE":"Small","SA_GOV_REG":"FAR NORTH","LOCAL_GOVE":"PASTORAL UNINCORPORATED AREA","SUBURB":"GAWLER RANGES","LATITUDE":-32.6564697,"LONGITUDE":135.62719099999998,"DISPATCH":"Off-Grid"}},{"type":"Feature","geometry":{"type":"Point","coordinates":[135.64172363306614,-32.64868164069304]},"properties":{"OWNER_OPER":"Both owner and operator","STATION_NA":"Paney Shearers Quarters","CAPACITY_M":0.01,"DEVELOPMEN":"In Service","UNIT_STATU":"Operational","SCALE":"Small","SA_GOV_REG":"FAR NORTH","LOCAL_GOVE":"PASTORAL UNINCORPORATED AREA","SUBURB":"GAWLER RANGES","LATITUDE":-32.64868626,"LONGITUDE":135.641641,"DISPATCH":"Off-Grid"}},{"type":"Feature","geometry":{"type":"Point","coordinates":[138.82788085914729,-34.69238281307986]},"properties":{"OWNER_OPER":"","STATION_NA":"Para Wirra Recreation Park","CAPACITY_M":null,"DEVELOPMEN":"In Service","UNIT_STATU":"Operational","SCALE":"Small","SA_GOV_REG":"BAROSSA, LIGHT AND LOWER NORTH","LOCAL_GOVE":"CITY OF PLAYFORD","SUBURB":"YATTALUNGA","LATITUDE":-34.69245332,"LONGITUDE":138.827738,"DISPATCH":"Off-Grid"}},{"type":"Feature","geometry":{"type":"Point","coordinates":[138.39532470711072,-31.12829589840925]},"properties":{"OWNER_OPER":"Dept. Energy & Mining - RAES Scheme","STATION_NA":"Parachilna Power Station","CAPACITY_M":0.2,"DEVELOPMEN":"In Service","UNIT_STATU":"Mini Grid - Prime","SCALE":"Small","SA_GOV_REG":"FAR NORTH","LOCAL_GOVE":"PASTORAL UNINCORPORATED AREA","SUBURB":"PARACHILLNA","LATITUDE":-31.1283567,"LONGITUDE":138.3952188,"DISPATCH":""}},{"type":"Feature","geometry":{"type":"Point","coordinates":[136.58068847687184,-30.54748535181335]},"properties":{"OWNER_OPER":"Both owner and operator","STATION_NA":"Parakylia Homestead","CAPACITY_M":0.02,"DEVELOPMEN":"In Service","UNIT_STATU":"Operational","SCALE":"Small","SA_GOV_REG":"FAR NORTH","LOCAL_GOVE":"PASTORAL UNINCORPORATED AREA","SUBURB":"PARAKYLIA","LATITUDE":-30.54751632,"LONGITUDE":136.5806828,"DISPATCH":"Off-Grid"}},{"type":"Feature","geometry":{"type":"Point","coordinates":[138.61291503907546,-34.91699218768866]},"properties":{"OWNER_OPER":"","STATION_NA":"Adelaide Bicentennial Conservatory","CAPACITY_M":null,"DEVELOPMEN":"In Service","UNIT_STATU":"Operational","SCALE":"Small","SA_GOV_REG":"EASTERN ADELAIDE","LOCAL_GOVE":"ADELAIDE CITY COUNCIL","SUBURB":"ADELAIDE","LATITUDE":-34.91707277,"LONGITUDE":138.6127742,"DISPATCH":"ON"}},{"type":"Feature","geometry":{"type":"Point","coordinates":[138.61431884820433,-34.91552734377166]},"properties":{"OWNER_OPER":"","STATION_NA":"Adelaide Botanic Gardens Goodman Building","CAPACITY_M":null,"DEVELOPMEN":"In Service","UNIT_STATU":"Operational","SCALE":"Small","SA_GOV_REG":"EASTERN ADELAIDE","LOCAL_GOVE":"THE CITY OF NORWOOD PAYNEHAM AND ST PETERS","SUBURB":"HACKNEY","LATITUDE":-34.91552001,"LONGITUDE":138.6141825,"DISPATCH":"ON"}},{"type":"Feature","geometry":{"type":"Point","coordinates":[138.60070800843368,-34.93090820340029]},"properties":{"OWNER_OPER":"","STATION_NA":"Adelaide City Watchhouse","CAPACITY_M":0.05,"DEVELOPMEN":"In Service","UNIT_STATU":"Operational","SCALE":"Small","SA_GOV_REG":"EASTERN ADELAIDE","LOCAL_GOVE":"ADELAIDE CITY COUNCIL","SUBURB":"ADELAIDE","LATITUDE":-34.93090042,"LONGITUDE":138.6006241,"DISPATCH":"ON"}},{"type":"Feature","geometry":{"type":"Point","coordinates":[138.60192871119784,-34.92718505931953]},"properties":{"OWNER_OPER":"Building Owner","STATION_NA":"Adelaide Education Building","CAPACITY_M":null,"DEVELOPMEN":"In Service","UNIT_STATU":"Operational","SCALE":"Small","SA_GOV_REG":"EASTERN ADELAIDE","LOCAL_GOVE":"ADELAIDE CITY COUNCIL","SUBURB":"ADELAIDE","LATITUDE":-34.92720321,"LONGITUDE":138.6018907,"DISPATCH":""}},{"type":"Feature","geometry":{"type":"Point","coordinates":[138.60192871119784,-34.92718505931953]},"properties":{"OWNER_OPER":"Building Owner","STATION_NA":"Adelaide Education Building (DAIS Government ICTs - Basement)","CAPACITY_M":null,"DEVELOPMEN":"In Service","UNIT_STATU":"Standby","SCALE":"Small","SA_GOV_REG":"EASTERN ADELAIDE","LOCAL_GOVE":"ADELAIDE CITY COUNCIL","SUBURB":"ADELAIDE","LATITUDE":-34.92720321,"LONGITUDE":138.6018907,"DISPATCH":"ON"}},{"type":"Feature","geometry":{"type":"Point","coordinates":[138.59887695278746,-34.919494629005214]},"properties":{"OWNER_OPER":"","STATION_NA":"Adelaide Festival Centre","CAPACITY_M":null,"DEVELOPMEN":"In Service","UNIT_STATU":"Prime","SCALE":"Small","SA_GOV_REG":"EASTERN ADELAIDE","LOCAL_GOVE":"ADELAIDE CITY COUNCIL","SUBURB":"ADELAIDE","LATITUDE":-34.91950596,"LONGITUDE":138.5988741,"DISPATCH":"ON"}},{"type":"Feature","geometry":{"type":"Point","coordinates":[138.60351562469134,-34.92779541020161]},"properties":{"OWNER_OPER":"Building Owner","STATION_NA":"Adelaide Forensic Science Building (Building Owner)","CAPACITY_M":0.25,"DEVELOPMEN":"In Service","UNIT_STATU":"Operational","SCALE":"Small","SA_GOV_REG":"EASTERN ADELAIDE","LOCAL_GOVE":"ADELAIDE CITY COUNCIL","SUBURB":"ADELAIDE","LATITUDE":-34.92785043,"LONGITUDE":138.6035074,"DISPATCH":"ON"}},{"type":"Feature","geometry":{"type":"Point","coordinates":[138.59228515566087,-34.92437744106195]},"properties":{"OWNER_OPER":"Building Owner","STATION_NA":"Adelaide Institute of Tafe (Roma Mitchell Arts Centre)","CAPACITY_M":null,"DEVELOPMEN":"In Service","UNIT_STATU":"Standby","SCALE":"Small","SA_GOV_REG":"EASTERN ADELAIDE","LOCAL_GOVE":"ADELAIDE CITY COUNCIL","SUBURB":"ADELAIDE","LATITUDE":-34.92436705,"LONGITUDE":138.5922824,"DISPATCH":"ON"}},{"type":"Feature","geometry":{"type":"Point","coordinates":[138.59887695278746,-34.92980957021251]},"properties":{"OWNER_OPER":"","STATION_NA":"Adelaide Magistrates Court","CAPACITY_M":0.55,"DEVELOPMEN":"In Service","UNIT_STATU":"Operational","SCALE":"Small","SA_GOV_REG":"EASTERN ADELAIDE","LOCAL_GOVE":"ADELAIDE CITY COUNCIL","SUBURB":"ADELAIDE","LATITUDE":-34.92983653,"LONGITUDE":138.5988407,"DISPATCH":"ON"}},{"type":"Feature","geometry":{"type":"Point","coordinates":[138.59887695278746,-34.921081543498644]},"properties":{"OWNER_OPER":"","STATION_NA":"Adelaide Parliament House","CAPACITY_M":0.28,"DEVELOPMEN":"In Service","UNIT_STATU":"Prime","SCALE":"Small","SA_GOV_REG":"EASTERN ADELAIDE","LOCAL_GOVE":"ADELAIDE CITY COUNCIL","SUBURB":"ADELAIDE","LATITUDE":-34.92109208,"LONGITUDE":138.5987852,"DISPATCH":"ON"}},{"type":"Feature","geometry":{"type":"Point","coordinates":[138.6010742191629,-34.93121337934133]},"properties":{"OWNER_OPER":"","STATION_NA":"Adelaide Police Communications Building","CAPACITY_M":0.38,"DEVELOPMEN":"In Service","UNIT_STATU":"Operational","SCALE":"Small","SA_GOV_REG":"EASTERN ADELAIDE","LOCAL_GOVE":"ADELAIDE CITY COUNCIL","SUBURB":"ADELAIDE","LATITUDE":-34.93128654,"LONGITUDE":138.6010074,"DISPATCH":"ON"}},{"type":"Feature","geometry":{"type":"Point","coordinates":[138.60290527280927,-34.92828369050727]},"properties":{"OWNER_OPER":"Building Owner","STATION_NA":"Adelaide Police Station & Major Crime Support","CAPACITY_M":0.41,"DEVELOPMEN":"In Service","UNIT_STATU":"Operational","SCALE":"Small","SA_GOV_REG":"EASTERN ADELAIDE","LOCAL_GOVE":"ADELAIDE CITY COUNCIL","SUBURB":"ADELAIDE","LATITUDE":-34.92825321,"LONGITUDE":138.6027574,"DISPATCH":""}},{"type":"Feature","geometry":{"type":"Point","coordinates":[138.62969970683298,-34.846313476942726]},"properties":{"OWNER_OPER":"","STATION_NA":"Adelaide Pre-Release Centre","CAPACITY_M":0.39,"DEVELOPMEN":"In Service","UNIT_STATU":"Operational","SCALE":"Small","SA_GOV_REG":"BAROSSA, LIGHT AND LOWER NORTH","LOCAL_GOVE":"CITY OF PORT ADELAIDE ENFIELD","SUBURB":"NORTHFIELD","LATITUDE":-34.84628372,"LONGITUDE":138.6296381,"DISPATCH":"ON"}},{"type":"Feature","geometry":{"type":"Point","coordinates":[138.59051513680276,-34.924682617002986]},"properties":{"OWNER_OPER":"","STATION_NA":"Adelaide Remand Centre","CAPACITY_M":null,"DEVELOPMEN":"In Service","UNIT_STATU":"Operational","SCALE":"Small","SA_GOV_REG":"EASTERN ADELAIDE","LOCAL_GOVE":"ADELAIDE CITY COUNCIL","SUBURB":"ADELAIDE","LATITUDE":-34.92472816,"LONGITUDE":138.5904268,"DISPATCH":"ON"}},{"type":"Feature","geometry":{"type":"Point","coordinates":[138.6049194338201,-34.928588867448354]},"properties":{"OWNER_OPER":"","STATION_NA":"Adelaide Station","CAPACITY_M":null,"DEVELOPMEN":"In Service","UNIT_STATU":"Prime","SCALE":"Small","SA_GOV_REG":"EASTERN ADELAIDE","LOCAL_GOVE":"ADELAIDE CITY COUNCIL","SUBURB":"ADELAIDE","LATITUDE":-34.92862543,"LONGITUDE":138.6048768,"DISPATCH":"ON"}},{"type":"Feature","geometry":{"type":"Point","coordinates":[138.63031005871505,-34.844482422296494]},"properties":{"OWNER_OPER":"","STATION_NA":"Adelaide Womens Prison","CAPACITY_M":null,"DEVELOPMEN":"In Service","UNIT_STATU":"Operational","SCALE":"Small","SA_GOV_REG":"BAROSSA, LIGHT AND LOWER NORTH","LOCAL_GOVE":"CITY OF PORT ADELAIDE ENFIELD","SUBURB":"NORTHFIELD","LATITUDE":-34.8445226,"LONGITUDE":138.6303269,"DISPATCH":"ON"}},{"type":"Feature","geometry":{"type":"Point","coordinates":[138.60229492192718,-34.827819824115466]},"properties":{"OWNER_OPER":"","STATION_NA":"Adelaide Youth Training Centre (Goldsborough Road Campus)","CAPACITY_M":null,"DEVELOPMEN":"In Service","UNIT_STATU":"Operational","SCALE":"Small","SA_GOV_REG":"BAROSSA, LIGHT AND LOWER NORTH","LOCAL_GOVE":"CITY OF SALISBURY","SUBURB":"CAVAN","LATITUDE":-34.82781434,"LONGITUDE":138.6022825,"DISPATCH":"ON"}},{"type":"Feature","geometry":{"type":"Point","coordinates":[138.60131835931577,-34.821899413659196]},"properties":{"OWNER_OPER":"","STATION_NA":"Adelaide Youth Training Centre (Jonal Drive Campus)","CAPACITY_M":0.09,"DEVELOPMEN":"In Service","UNIT_STATU":"Operational","SCALE":"Small","SA_GOV_REG":"BAROSSA, LIGHT AND LOWER NORTH","LOCAL_GOVE":"CITY OF SALISBURY","SUBURB":"CAVAN","LATITUDE":-34.82194491,"LONGITUDE":138.6013353,"DISPATCH":"ON"}},{"type":"Feature","geometry":{"type":"Point","coordinates":[136.86010742229223,-35.370788574021844]},"properties":{"OWNER_OPER":"","STATION_NA":"Althorpe Islands Conservation Park","CAPACITY_M":null,"DEVELOPMEN":"In Service","UNIT_STATU":"Operational","SCALE":"Small","SA_GOV_REG":"YORKE AND MID NORTH","LOCAL_GOVE":"","SUBURB":"","LATITUDE":-35.37078705,"LONGITUDE":136.859978,"DISPATCH":"Off-Grid"}},{"type":"Feature","geometry":{"type":"Point","coordinates":[131.14550781186915,-26.152893065984188]},"properties":{"OWNER_OPER":"","STATION_NA":"Amata Aboriginal Community","CAPACITY_M":null,"DEVELOPMEN":"In Service","UNIT_STATU":"Operational","SCALE":"Small","SA_GOV_REG":"FAR NORTH","LOCAL_GOVE":"ANANGU PITJANTJATJARA YANKUNYTJATJARA","SUBURB":"AMATA","LATITUDE":-26.15296589,"LONGITUDE":131.1453709,"DISPATCH":"MINI"}},{"type":"Feature","geometry":{"type":"Point","coordinates":[131.14648437548055,-26.151489257855417]},"properties":{"OWNER_OPER":"","STATION_NA":"Amata Police Station","CAPACITY_M":null,"DEVELOPMEN":"In Service","UNIT_STATU":"Operational","SCALE":"Small","SA_GOV_REG":"FAR NORTH","LOCAL_GOVE":"ANANGU PITJANTJATJARA YANKUNYTJATJARA","SUBURB":"AMATA","LATITUDE":-26.15152698,"LONGITUDE":131.1464181,"DISPATCH":"MINI"}},{"type":"Feature","geometry":{"type":"Point","coordinates":[131.14471435462247,-26.149475097844515]},"properties":{"OWNER_OPER":"Dept. Energy & Mining - RAES Scheme","STATION_NA":"Amata Power Station","CAPACITY_M":1.19,"DEVELOPMEN":"In Service","UNIT_STATU":"Standby Station","SCALE":"Small","SA_GOV_REG":"FAR NORTH","LOCAL_GOVE":"ANANGU PITJANTJATJARA YANKUNYTJATJARA","SUBURB":"AMATA","LATITUDE":-26.1494453,"LONGITUDE":131.1447048,"DISPATCH":"MINI"}},{"type":"Feature","geometry":{"type":"Point","coordinates":[138.76428222683353,-34.54870605463611]},"properties":{"OWNER_OPER":"AMCOR Glass","STATION_NA":"AMCOR Glass","CAPACITY_M":4,"DEVELOPMEN":"In Service","UNIT_STATU":"Peak","SCALE":"Small","SA_GOV_REG":"BAROSSA, LIGHT AND LOWER NORTH","LOCAL_GOVE":"LIGHT REGIONAL COUNCIL","SUBURB":"YATTALUNGA","LATITUDE":-34.54874057,"LONGITUDE":138.7643282,"DISPATCH":"ON"}},{"type":"Feature","geometry":{"type":"Point","coordinates":[137.16589355521887,-30.44860839791494]},"properties":{"OWNER_OPER":"Jeril Enterprises","STATION_NA":"Andamooka","CAPACITY_M":null,"DEVELOPMEN":"In Service","UNIT_STATU":"Mini Grid","SCALE":"Small","SA_GOV_REG":"FAR NORTH","LOCAL_GOVE":"PASTORAL UNINCORPORATED AREA","SUBURB":"ANDAMOOKA","LATITUDE":-30.44864419,"LONGITUDE":137.1658697,"DISPATCH":"Generator"}},{"type":"Feature","geometry":{"type":"Point","coordinates":[139.0244750979681,-34.50347900357332]},"properties":{"OWNER_OPER":"Snowy Hydro","STATION_NA":"Angaston","CAPACITY_M":50,"DEVELOPMEN":"In Service","UNIT_STATU":"Operational","SCALE":"Large","SA_GOV_REG":"BAROSSA, LIGHT AND LOWER NORTH","LOCAL_GOVE":"THE BAROSSA COUNCIL","SUBURB":"ANGASTON","LATITUDE":-34.50346663,"LONGITUDE":139.0245444,"DISPATCH":""}},{"type":"Feature","geometry":{"type":"Point","coordinates":[138.55712890565258,-34.85900878889021]},"properties":{"OWNER_OPER":"","STATION_NA":"Angle Park Corner of Cowan & Trafford Street","CAPACITY_M":null,"DEVELOPMEN":"In Service","UNIT_STATU":"Operational","SCALE":"Small","SA_GOV_REG":"WESTERN ADELAIDE","LOCAL_GOVE":"CITY OF PORT ADELAIDE ENFIELD","SUBURB":"ANGLE PARK","LATITUDE":-34.85907147,"LONGITUDE":138.5569875,"DISPATCH":"ON"}},{"type":"Feature","geometry":{"type":"Point","coordinates":[139.38629150447048,-30.292785644617595]},"properties":{"OWNER_OPER":"Both owner and operator","STATION_NA":"Arkaroola Power House","CAPACITY_M":0.4,"DEVELOPMEN":"In Service","UNIT_STATU":"Prime","SCALE":"Small","SA_GOV_REG":"FAR NORTH","LOCAL_GOVE":"PASTORAL UNINCORPORATED AREA","SUBURB":"ARKAROOLA","LATITUDE":-30.29285421,"LONGITUDE":139.3862987,"DISPATCH":"MINI"}},{"type":"Feature","geometry":{"type":"Point","coordinates":[138.60272216844464,-34.91967773436983]},"properties":{"OWNER_OPER":"Arts SA","STATION_NA":"Artlab","CAPACITY_M":null,"DEVELOPMEN":"In Service","UNIT_STATU":"Operational","SCALE":"Small","SA_GOV_REG":"EASTERN ADELAIDE","LOCAL_GOVE":"ADELAIDE CITY COUNCIL","SUBURB":"ADELAIDE","LATITUDE":-34.91970322,"LONGITUDE":138.6027157,"DISPATCH":"ON"}},{"type":"Feature","geometry":{"type":"Point","coordinates":[139.3048706049998,-30.531921386820102]},"properties":{"OWNER_OPER":"Dept. Environment & Water","STATION_NA":"Balcanoona","CAPACITY_M":0.08,"DEVELOPMEN":"In Service","UNIT_STATU":"Operational","SCALE":"Small","SA_GOV_REG":"FAR NORTH","LOCAL_GOVE":"PASTORAL UNINCORPORATED AREA","SUBURB":"GAMMON RANGES","LATITUDE":-30.53191963,"LONGITUDE":139.3048397,"DISPATCH":"Off-Grid"}},{"type":"Feature","geometry":{"type":"Point","coordinates":[138.65551757824528,-34.74591064533911]},"properties":{"OWNER_OPER":"SA Government","STATION_NA":"SA Government (Holden Site)","CAPACITY_M":153.5,"DEVELOPMEN":"In Service","UNIT_STATU":"Operational","SCALE":"Large","SA_GOV_REG":"NORTHERN ADELAIDE","LOCAL_GOVE":"CITY OF PLAYFORD","SUBURB":"ELIZABETH SOUTH","LATITUDE":-34.74598348,"LONGITUDE":138.6553965,"DISPATCH":""}},{"type":"Feature","geometry":{"type":"Point","coordinates":[138.60070800843368,-34.911499022749865]},"properties":{"OWNER_OPER":"","STATION_NA":"SA Pathology - Adelaide Main Site","CAPACITY_M":null,"DEVELOPMEN":"In Service","UNIT_STATU":"Operational","SCALE":"Small","SA_GOV_REG":"EASTERN ADELAIDE","LOCAL_GOVE":"ADELAIDE CITY COUNCIL","SUBURB":"NORTH ADELAIDE","LATITUDE":-34.91158096,"LONGITUDE":138.6007241,"DISPATCH":"ON"}},{"type":"Feature","geometry":{"type":"Point","coordinates":[138.64727783183707,-34.76440429716638]},"properties":{"OWNER_OPER":"","STATION_NA":"Salisbury Police Patrol Base","CAPACITY_M":0.41,"DEVELOPMEN":"In Service","UNIT_STATU":"Operational","SCALE":"Small","SA_GOV_REG":"BAROSSA, LIGHT AND LOWER NORTH","LOCAL_GOVE":"CITY OF SALISBURY","SUBURB":"SALISBURY","LATITUDE":-34.76442002,"LONGITUDE":138.6473574,"DISPATCH":"ON"}},{"type":"Feature","geometry":{"type":"Point","coordinates":[137.3159179686363,-35.98651123047324]},"properties":{"OWNER_OPER":"Dept. Environment & Water","STATION_NA":"Seal Bay Conservation Park","CAPACITY_M":0.02,"DEVELOPMEN":"In Service","UNIT_STATU":"Operational","SCALE":"Small","SA_GOV_REG":"FLEURIEU AND KANGAROO ISLAND","LOCAL_GOVE":"KANGAROO ISLAND COUNCIL","SUBURB":"SEAL BAY","LATITUDE":-35.98649974,"LONGITUDE":137.3158588,"DISPATCH":"Off-Grid"}},{"type":"Feature","geometry":{"type":"Point","coordinates":[137.3067016596168,-35.916687011762235]},"properties":{"OWNER_OPER":"","STATION_NA":"Seal Bay Tourist Park","CAPACITY_M":0.01,"DEVELOPMEN":"In Service","UNIT_STATU":"Operational","SCALE":"Small","SA_GOV_REG":"FLEURIEU AND KANGAROO ISLAND","LOCAL_GOVE":"KANGAROO ISLAND COUNCIL","SUBURB":"SEDDON","LATITUDE":-35.91668937,"LONGITUDE":137.3066741,"DISPATCH":"Off-Grid"}},{"type":"Feature","geometry":{"type":"Point","coordinates":[137.9423217770243,-35.71679687537812]},"properties":{"OWNER_OPER":"","STATION_NA":"Sealink","CAPACITY_M":0.06,"DEVELOPMEN":"In Service","UNIT_STATU":"Operational","SCALE":"Small","SA_GOV_REG":"FLEURIEU AND KANGAROO ISLAND","LOCAL_GOVE":"KANGAROO ISLAND COUNCIL","SUBURB":"PENNESHAW","LATITUDE":-35.71686931,"LONGITUDE":137.9421985,"DISPATCH":"ON"}},{"type":"Feature","geometry":{"type":"Point","coordinates":[140.41632080128386,-32.47058105469944]},"properties":{"OWNER_OPER":"Both owner and operator","STATION_NA":"Shearing Shed","CAPACITY_M":null,"DEVELOPMEN":"In Service","UNIT_STATU":"Operational","SCALE":"Small","SA_GOV_REG":"FAR NORTH","LOCAL_GOVE":"PASTORAL UNINCORPORATED AREA","SUBURB":"DEVONBOROUGH DOWNS","LATITUDE":-32.47056197,"LONGITUDE":140.4162429,"DISPATCH":"Off-Grid"}},{"type":"Feature","geometry":{"type":"Point","coordinates":[138.59869384842284,-34.92968749963609]},"properties":{"OWNER_OPER":"CAA","STATION_NA":"Sir Samuel Way Building","CAPACITY_M":0.44,"DEVELOPMEN":"In Service","UNIT_STATU":"Prime","SCALE":"Small","SA_GOV_REG":"EASTERN ADELAIDE","LOCAL_GOVE":"ADELAIDE CITY COUNCIL","SUBURB":"ADELAIDE","LATITUDE":-34.9297032,"LONGITUDE":138.5986491,"DISPATCH":"ON"}},{"type":"Feature","geometry":{"type":"Point","coordinates":[140.4157104494018,-37.66448974591236]},"properties":{"OWNER_OPER":"Synergen Power (engie)","STATION_NA":"Snuggery","CAPACITY_M":63,"DEVELOPMEN":"In Service","UNIT_STATU":"Operational","SCALE":"Large","SA_GOV_REG":"LIMESTONE COAST","LOCAL_GOVE":"WATTLE RANGE COUNCIL","SUBURB":"MILLICENT","LATITUDE":-37.66453687,"LONGITUDE":140.4155658,"DISPATCH":""}},{"type":"Feature","geometry":{"type":"Point","coordinates":[138.6032714835385,-34.920410155828336]},"properties":{"OWNER_OPER":"","STATION_NA":"South Australian Museum","CAPACITY_M":null,"DEVELOPMEN":"In Service","UNIT_STATU":"Operational","SCALE":"Small","SA_GOV_REG":"EASTERN ADELAIDE","LOCAL_GOVE":"ADELAIDE CITY COUNCIL","SUBURB":"ADELAIDE","LATITUDE":-34.92055599,"LONGITUDE":138.6032241,"DISPATCH":"ON"}},{"type":"Feature","geometry":{"type":"Point","coordinates":[138.60308837917387,-34.919982910310864]},"properties":{"OWNER_OPER":"","STATION_NA":"South Australian Museum (The Science Centre)","CAPACITY_M":null,"DEVELOPMEN":"In Service","UNIT_STATU":"Operational","SCALE":"Small","SA_GOV_REG":"EASTERN ADELAIDE","LOCAL_GOVE":"ADELAIDE CITY COUNCIL","SUBURB":"ADELAIDE","LATITUDE":-34.92003933,"LONGITUDE":138.6030018,"DISPATCH":"ON"}},{"type":"Feature","geometry":{"type":"Point","coordinates":[138.70928955065733,-34.974182129240376]},"properties":{"OWNER_OPER":"","STATION_NA":"Southern Lofty District Office","CAPACITY_M":null,"DEVELOPMEN":"In Service","UNIT_STATU":"Operational","SCALE":"Small","SA_GOV_REG":"ADELAIDE HILLS","LOCAL_GOVE":"ADELAIDE HILLS COUNCIL","SUBURB":"CLELAND","LATITUDE":-34.97419768,"LONGITUDE":138.7091992,"DISPATCH":"ON"}},{"type":"Feature","geometry":{"type":"Point","coordinates":[136.8308715817402,-36.018310547130056]},"properties":{"OWNER_OPER":"","STATION_NA":"Southern Ocean Lodge","CAPACITY_M":0.46,"DEVELOPMEN":"In Service","UNIT_STATU":"Operational","SCALE":"Small","SA_GOV_REG":"FLEURIEU AND KANGAROO ISLAND","LOCAL_GOVE":"KANGAROO ISLAND COUNCIL","SUBURB":"KARATTA","LATITUDE":-36.01837728,"LONGITUDE":136.8307914,"DISPATCH":"Off-Grid"}},{"type":"Feature","geometry":{"type":"Point","coordinates":[138.6010742191629,-34.927612304837]},"properties":{"OWNER_OPER":"DPTI","STATION_NA":"State Administration Centre (Building Owner)","CAPACITY_M":0.44,"DEVELOPMEN":"In Service","UNIT_STATU":"Prime","SCALE":"Small","SA_GOV_REG":"EASTERN ADELAIDE","LOCAL_GOVE":"ADELAIDE CITY COUNCIL","SUBURB":"ADELAIDE","LATITUDE":-34.92760043,"LONGITUDE":138.6010046,"DISPATCH":"ON"}},{"type":"Feature","geometry":{"type":"Point","coordinates":[138.6010742191629,-34.927612304837]},"properties":{"OWNER_OPER":"","STATION_NA":"State Administration Centre (SAG Radio Network - Basement & Roof)","CAPACITY_M":null,"DEVELOPMEN":"In Service","UNIT_STATU":"Operational","SCALE":"Small","SA_GOV_REG":"EASTERN ADELAIDE","LOCAL_GOVE":"ADELAIDE CITY COUNCIL","SUBURB":"ADELAIDE","LATITUDE":-34.92760043,"LONGITUDE":138.6010046,"DISPATCH":"ON"}},{"type":"Feature","geometry":{"type":"Point","coordinates":[138.88867187520327,-35.25640869091836]},"properties":{"OWNER_OPER":"Police","STATION_NA":"Strathalbyn Police Station And Court","CAPACITY_M":0.01,"DEVELOPMEN":"In Service","UNIT_STATU":"Operational","SCALE":"Small","SA_GOV_REG":"FLEURIEU AND KANGAROO ISLAND","LOCAL_GOVE":"ALEXANDRINA COUNCIL","SUBURB":"STRATHALBYN","LATITUDE":-35.25639487,"LONGITUDE":138.8886267,"DISPATCH":"ON"}},{"type":"Feature","geometry":{"type":"Point","coordinates":[138.56488037075508,-35.01721191392767]},"properties":{"OWNER_OPER":"Police","STATION_NA":"Sturt Police Station And Complex","CAPACITY_M":0.1,"DEVELOPMEN":"In Service","UNIT_STATU":"Standby","SCALE":"Small","SA_GOV_REG":"SOUTHERN ADELAIDE","LOCAL_GOVE":"CITY OF MARION","SUBURB":"BEDFORD PARK","LATITUDE":-35.01735037,"LONGITUDE":138.5648769,"DISPATCH":"ON"}},{"type":"Feature","geometry":{"type":"Point","coordinates":[140.45367431566774,-37.69830322258008]},"properties":{"OWNER_OPER":"DECS","STATION_NA":"Tantanoola Primary School","CAPACITY_M":null,"DEVELOPMEN":"In Service","UNIT_STATU":"Operational","SCALE":"Small","SA_GOV_REG":"LIMESTONE COAST","LOCAL_GOVE":"WATTLE RANGE COUNCIL","SUBURB":"TANTANOOLA","LATITUDE":-37.698336,"LONGITUDE":140.4536383,"DISPATCH":"ON"}},{"type":"Feature","geometry":{"type":"Point","coordinates":[134.56671142634275,-30.709411620931576]},"properties":{"OWNER_OPER":"","STATION_NA":"Tarcoola Remote Power","CAPACITY_M":null,"DEVELOPMEN":"In Service","UNIT_STATU":"Operational","SCALE":"Small","SA_GOV_REG":"FAR NORTH","LOCAL_GOVE":"PASTORAL UNINCORPORATED AREA","SUBURB":"TARCOOLA","LATITUDE":-30.709530870000002,"LONGITUDE":134.5665636,"DISPATCH":"MINI"}},{"type":"Feature","geometry":{"type":"Point","coordinates":[140.73651123022785,-36.32818603486669]},"properties":{"OWNER_OPER":"Vibe Energy Pty Ltd","STATION_NA":"Tatiara Bordertown Plant","CAPACITY_M":1,"DEVELOPMEN":"In Service","UNIT_STATU":"Operational","SCALE":"Small","SA_GOV_REG":"LIMESTONE COAST","LOCAL_GOVE":"TATIARA DC","SUBURB":"BORDERTOWN","LATITUDE":-36.32816121,"LONGITUDE":140.7364789,"DISPATCH":"Generator"}},{"type":"Feature","geometry":{"type":"Point","coordinates":[140.73687744095707,-36.32720947325532]},"properties":{"OWNER_OPER":"","STATION_NA":"Tatiara Meat Company","CAPACITY_M":0.48,"DEVELOPMEN":"In Service","UNIT_STATU":"Peak","SCALE":"Small","SA_GOV_REG":"LIMESTONE COAST","LOCAL_GOVE":"TATIARA DC","SUBURB":"BORDERTOWN","LATITUDE":-36.32734578,"LONGITUDE":140.7368386,"DISPATCH":"ON"}},{"type":"Feature","geometry":{"type":"Point","coordinates":[138.6956787108868,-34.83227539065467]},"properties":{"OWNER_OPER":"","STATION_NA":"Tea Tree Gully Campus","CAPACITY_M":null,"DEVELOPMEN":"In Service","UNIT_STATU":"Operational","SCALE":"Small","SA_GOV_REG":"BAROSSA, LIGHT AND LOWER NORTH","LOCAL_GOVE":"CITY OF TEA TREE GULLY","SUBURB":"MODBURY","LATITUDE":-34.83224494,"LONGITUDE":138.6956936,"DISPATCH":"ON"}},{"type":"Feature","geometry":{"type":"Point","coordinates":[137.3300781245008,-35.79162597672223]},"properties":{"OWNER_OPER":"","STATION_NA":"Timber Creek Pine","CAPACITY_M":1.62,"DEVELOPMEN":"In Service","UNIT_STATU":"Operational","SCALE":"Small","SA_GOV_REG":"FLEURIEU AND KANGAROO ISLAND","LOCAL_GOVE":"KANGAROO ISLAND COUNCIL","SUBURB":"SEDDON","LATITUDE":-35.79165456,"LONGITUDE":137.3299546,"DISPATCH":"ON"}},{"type":"Feature","geometry":{"type":"Point","coordinates":[132.04089355489373,-26.466186522860482]},"properties":{"OWNER_OPER":"","STATION_NA":"Umuwa Police Station","CAPACITY_M":null,"DEVELOPMEN":"In Service","UNIT_STATU":"Operational","SCALE":"Small","SA_GOV_REG":"FAR NORTH","LOCAL_GOVE":"ANANGU PITJANTJATJARA YANKUNYTJATJARA","SUBURB":"UMUWA","LATITUDE":-26.46618612,"LONGITUDE":132.0408598,"DISPATCH":"MINI"}},{"type":"Feature","geometry":{"type":"Point","coordinates":[138.6066894526782,-34.919982910310864]},"properties":{"OWNER_OPER":"","STATION_NA":"University Of South Australia (City East Campus)","CAPACITY_M":null,"DEVELOPMEN":"In Service","UNIT_STATU":"Operational","SCALE":"Small","SA_GOV_REG":"EASTERN ADELAIDE","LOCAL_GOVE":"ADELAIDE CITY COUNCIL","SUBURB":"ADELAIDE","LATITUDE":-34.92001714,"LONGITUDE":138.6065935,"DISPATCH":"ON"}},{"type":"Feature","geometry":{"type":"Point","coordinates":[138.58868408215653,-31.6347045901785]},"properties":{"OWNER_OPER":"Both owner and operator","STATION_NA":"Villas Plant","CAPACITY_M":0.03,"DEVELOPMEN":"In Service","UNIT_STATU":"Prime","SCALE":"Small","SA_GOV_REG":"FAR NORTH","LOCAL_GOVE":"PASTORAL UNINCORPORATED AREA","SUBURB":"FLINDERS RANGES","LATITUDE":-31.6347344,"LONGITUDE":138.5886877,"DISPATCH":"ON"}},{"type":"Feature","geometry":{"type":"Point","coordinates":[137.17370605510962,-35.987121582355314]},"properties":{"OWNER_OPER":"","STATION_NA":"Vivonne Bay Eco Adventures","CAPACITY_M":0.01,"DEVELOPMEN":"In Service","UNIT_STATU":"Operational","SCALE":"Small","SA_GOV_REG":"FLEURIEU AND KANGAROO ISLAND","LOCAL_GOVE":"KANGAROO ISLAND COUNCIL","SUBURB":"VIVONNE BAY","LATITUDE":-35.98714229,"LONGITUDE":137.1736298,"DISPATCH":"ON"}},{"type":"Feature","geometry":{"type":"Point","coordinates":[138.60211181556247,-34.928405762083685]},"properties":{"OWNER_OPER":"","STATION_NA":"Wakefield House (Building Owner)","CAPACITY_M":0.15,"DEVELOPMEN":"In Service","UNIT_STATU":"Operational","SCALE":"Small","SA_GOV_REG":"EASTERN ADELAIDE","LOCAL_GOVE":"ADELAIDE CITY COUNCIL","SUBURB":"ADELAIDE","LATITUDE":-34.92840043,"LONGITUDE":138.6020907,"DISPATCH":"ON"}},{"type":"Feature","geometry":{"type":"Point","coordinates":[138.6173095698265,-34.896484374850445]},"properties":{"OWNER_OPER":"","STATION_NA":"Walkerville DPTI Head Office","CAPACITY_M":null,"DEVELOPMEN":"In Service","UNIT_STATU":"Operational","SCALE":"Small","SA_GOV_REG":"EASTERN ADELAIDE","LOCAL_GOVE":"THE CORPORATION OF THE TOWN OF WALKERVILLE","SUBURB":"WALKERVILLE","LATITUDE":-34.89655333,"LONGITUDE":138.6172575,"DISPATCH":"ON"}},{"type":"Feature","geometry":{"type":"Point","coordinates":[140.5880737303038,-32.09399414145054]},"properties":{"OWNER_OPER":"","STATION_NA":"White Dam","CAPACITY_M":null,"DEVELOPMEN":"In Service","UNIT_STATU":"Operational","SCALE":"Small","SA_GOV_REG":"FAR NORTH","LOCAL_GOVE":"PASTORAL UNINCORPORATED AREA","SUBURB":"BULLOO CREEK","LATITUDE":-32.09399994,"LONGITUDE":140.5879534,"DISPATCH":"Off-Grid"}},{"type":"Feature","geometry":{"type":"Point","coordinates":[137.58587646488434,-33.03350830135014]},"properties":{"OWNER_OPER":"","STATION_NA":"Whyalla Police Headquarters","CAPACITY_M":null,"DEVELOPMEN":"In Service","UNIT_STATU":"Operational","SCALE":"Small","SA_GOV_REG":"EYRE AND WESTERN","LOCAL_GOVE":"THE CORPORATION OF THE CITY OF WHYALLA","SUBURB":"WHYALLA","LATITUDE":-33.03361617,"LONGITUDE":137.5858915,"DISPATCH":"ON"}},{"type":"Feature","geometry":{"type":"Point","coordinates":[138.5957031248006,-31.376281737902048]},"properties":{"OWNER_OPER":"AGL SA","STATION_NA":"Wilpena Pound","CAPACITY_M":null,"DEVELOPMEN":"In Service","UNIT_STATU":"Operational","SCALE":"Small","SA_GOV_REG":"FAR NORTH","LOCAL_GOVE":"PASTORAL UNINCORPORATED AREA","SUBURB":"FLINDERS RANGES","LATITUDE":-31.37630591,"LONGITUDE":138.5956686,"DISPATCH":"Off-Grid"}},{"type":"Feature","geometry":{"type":"Point","coordinates":[135.59210205125225,-26.395690918479204]},"properties":{"OWNER_OPER":"Dept. Environment & Water","STATION_NA":"Witjira National Park","CAPACITY_M":0.02,"DEVELOPMEN":"In Service","UNIT_STATU":"Prime","SCALE":"Small","SA_GOV_REG":"FAR NORTH","LOCAL_GOVE":"PASTORAL UNINCORPORATED AREA","SUBURB":"WITJIRA","LATITUDE":-26.39575826,"LONGITUDE":135.592017,"DISPATCH":"Off-Grid"}},{"type":"Feature","geometry":{"type":"Point","coordinates":[138.60009765555162,-34.91131591838524]},"properties":{"OWNER_OPER":"","STATION_NA":"Womens And Childrens Hospital","CAPACITY_M":9.4,"DEVELOPMEN":"In Service","UNIT_STATU":"Operational","SCALE":"Large","SA_GOV_REG":"EASTERN ADELAIDE","LOCAL_GOVE":"ADELAIDE CITY COUNCIL","SUBURB":"NORTH ADELAIDE","LATITUDE":-34.91134208,"LONGITUDE":138.6000824,"DISPATCH":"ON"}},{"type":"Feature","geometry":{"type":"Point","coordinates":[138.8762817381969,-34.953002929731895]},"properties":{"OWNER_OPER":"","STATION_NA":"Woodside Police Station","CAPACITY_M":null,"DEVELOPMEN":"In Service","UNIT_STATU":"Operational","SCALE":"Small","SA_GOV_REG":"ADELAIDE HILLS","LOCAL_GOVE":"ADELAIDE HILLS COUNCIL","SUBURB":"WOODSIDE","LATITUDE":-34.95299503,"LONGITUDE":138.8761908,"DISPATCH":"ON"}},{"type":"Feature","geometry":{"type":"Point","coordinates":[138.54211425775316,-34.88012695261045]},"properties":{"OWNER_OPER":"","STATION_NA":"Woodville 19-21A Belmore Terrace","CAPACITY_M":null,"DEVELOPMEN":"In Service","UNIT_STATU":"Operational","SCALE":"Small","SA_GOV_REG":"WESTERN ADELAIDE","LOCAL_GOVE":"CITY OF CHARLES STURT","SUBURB":"WOODVILLE","LATITUDE":-34.88011966,"LONGITUDE":138.5420271,"DISPATCH":"ON"}},{"type":"Feature","geometry":{"type":"Point","coordinates":[131.8408813479332,-31.481201171833163]},"properties":{"OWNER_OPER":"","STATION_NA":"Yalata Aboriginal Community","CAPACITY_M":null,"DEVELOPMEN":"In Service","UNIT_STATU":"Operational","SCALE":"Small","SA_GOV_REG":"EYRE AND WESTERN","LOCAL_GOVE":"PASTORAL UNINCORPORATED AREA","SUBURB":"YALATA","LATITUDE":-31.48126407,"LONGITUDE":131.8409643,"DISPATCH":"MINI"}},{"type":"Feature","geometry":{"type":"Point","coordinates":[131.84387206955546,-31.47967529312791]},"properties":{"OWNER_OPER":"","STATION_NA":"Yalata Anangu School","CAPACITY_M":null,"DEVELOPMEN":"In Service","UNIT_STATU":"Operational","SCALE":"Small","SA_GOV_REG":"EYRE AND WESTERN","LOCAL_GOVE":"PASTORAL UNINCORPORATED AREA","SUBURB":"YALATA","LATITUDE":-31.47972519,"LONGITUDE":131.8438309,"DISPATCH":"MINI"}},{"type":"Feature","geometry":{"type":"Point","coordinates":[131.84167480517988,-31.481384277197776]},"properties":{"OWNER_OPER":"Dept. Energy & Mining - RAES Scheme","STATION_NA":"Yalata Power Station","CAPACITY_M":0.85,"DEVELOPMEN":"In Service","UNIT_STATU":"Mini Grid - Prime","SCALE":"Small","SA_GOV_REG":"EYRE AND WESTERN","LOCAL_GOVE":"PASTORAL UNINCORPORATED AREA","SUBURB":"YALATA","LATITUDE":-31.48144829,"LONGITUDE":131.8415807,"DISPATCH":"MINI"}},{"type":"Feature","geometry":{"type":"Point","coordinates":[138.6282958977041,-34.845886230425265]},"properties":{"OWNER_OPER":"DCS","STATION_NA":"Yatala Labour Prison","CAPACITY_M":null,"DEVELOPMEN":"In Service","UNIT_STATU":"Prime","SCALE":"Small","SA_GOV_REG":"BAROSSA, LIGHT AND LOWER NORTH","LOCAL_GOVE":"CITY OF PORT ADELAIDE ENFIELD","SUBURB":"NORTHFIELD","LATITUDE":-34.8458615,"LONGITUDE":138.6283214,"DISPATCH":"ON"}},{"type":"Feature","geometry":{"type":"Point","coordinates":[139.5610961909008,-32.581604004451435]},"properties":{"OWNER_OPER":"Dalform","STATION_NA":"Yunta","CAPACITY_M":null,"DEVELOPMEN":"In Service","UNIT_STATU":"Mini Grid","SCALE":"Small","SA_GOV_REG":"FAR NORTH","LOCAL_GOVE":"PASTORAL UNINCORPORATED AREA","SUBURB":"YUNTA","LATITUDE":-32.58164201,"LONGITUDE":139.5610267,"DISPATCH":"Generator"}},{"type":"Feature","geometry":{"type":"Point","coordinates":[136.58068847687184,-30.54748535181335]},"properties":{"OWNER_OPER":"Both owner and operator","STATION_NA":"Parakylia Woolshed","CAPACITY_M":0.14,"DEVELOPMEN":"In Service","UNIT_STATU":"Operational","SCALE":"Small","SA_GOV_REG":"FAR NORTH","LOCAL_GOVE":"PASTORAL UNINCORPORATED AREA","SUBURB":"PARAKYLIA","LATITUDE":-30.54751632,"LONGITUDE":136.5806828,"DISPATCH":"Off-Grid"}},{"type":"Feature","geometry":{"type":"Point","coordinates":[137.2302856447792,-35.7872924797594]},"properties":{"OWNER_OPER":"","STATION_NA":"Parndana Wildlife Park","CAPACITY_M":0.01,"DEVELOPMEN":"In Service","UNIT_STATU":"Operational","SCALE":"Small","SA_GOV_REG":"FLEURIEU AND KANGAROO ISLAND","LOCAL_GOVE":"KANGAROO ISLAND COUNCIL","SUBURB":"DUNCAN","LATITUDE":-35.78733522,"LONGITUDE":137.2302316,"DISPATCH":"ON"}},{"type":"Feature","geometry":{"type":"Point","coordinates":[135.3751220701697,-29.593505859108234]},"properties":{"OWNER_OPER":"","STATION_NA":"Peculiar Knob","CAPACITY_M":null,"DEVELOPMEN":"In Service","UNIT_STATU":"Operational","SCALE":"Small","SA_GOV_REG":"FAR NORTH","LOCAL_GOVE":"PASTORAL UNINCORPORATED AREA","SUBURB":"MCDOUALL PEAK","LATITUDE":-29.59351288,"LONGITUDE":135.375036,"DISPATCH":"Off-Grid"}},{"type":"Feature","geometry":{"type":"Point","coordinates":[137.9382934570025,-35.71807861293047]},"properties":{"OWNER_OPER":"","STATION_NA":"Penneshaw IGA","CAPACITY_M":0.15,"DEVELOPMEN":"In Service","UNIT_STATU":"Operational","SCALE":"Small","SA_GOV_REG":"FLEURIEU AND KANGAROO ISLAND","LOCAL_GOVE":"KANGAROO ISLAND COUNCIL","SUBURB":"PENNESHAW","LATITUDE":-35.71804855,"LONGITUDE":137.9382648,"DISPATCH":"ON"}},{"type":"Feature","geometry":{"type":"Point","coordinates":[137.93707275423833,-35.71759033162482]},"properties":{"OWNER_OPER":"","STATION_NA":"Penneshaw Service Station","CAPACITY_M":0.11,"DEVELOPMEN":"In Service","UNIT_STATU":"Operational","SCALE":"Small","SA_GOV_REG":"FLEURIEU AND KANGAROO ISLAND","LOCAL_GOVE":"KANGAROO ISLAND COUNCIL","SUBURB":"PENNESHAW","LATITUDE":-35.71756222,"LONGITUDE":137.9370064,"DISPATCH":"ON"}},{"type":"Feature","geometry":{"type":"Point","coordinates":[133.01129150362704,-31.92852783161618]},"properties":{"OWNER_OPER":"","STATION_NA":"Penong Police Station","CAPACITY_M":null,"DEVELOPMEN":"In Service","UNIT_STATU":"Operational","SCALE":"Small","SA_GOV_REG":"EYRE AND WESTERN","LOCAL_GOVE":"PASTORAL UNINCORPORATED AREA","SUBURB":"PENONG","LATITUDE":-31.9285509,"LONGITUDE":133.0111753,"DISPATCH":"Off-Grid"}},{"type":"Feature","geometry":{"type":"Point","coordinates":[138.83087158176943,-32.980712890549455]},"properties":{"OWNER_OPER":"","STATION_NA":"Peterborough Hospital","CAPACITY_M":null,"DEVELOPMEN":"In Service","UNIT_STATU":"Operational","SCALE":"Small","SA_GOV_REG":"YORKE AND MID NORTH","LOCAL_GOVE":"THE DC OF PETERBOROUGH","SUBURB":"PETERBOROUGH","LATITUDE":-32.98074236,"LONGITUDE":138.8308934,"DISPATCH":"ON"}},{"type":"Feature","geometry":{"type":"Point","coordinates":[129.17468261660372,-26.163391112556155]},"properties":{"OWNER_OPER":"DECS","STATION_NA":"Pipalyatjara Anangu School","CAPACITY_M":null,"DEVELOPMEN":"In Service","UNIT_STATU":"Prime","SCALE":"Small","SA_GOV_REG":"FAR NORTH","LOCAL_GOVE":"ANANGU PITJANTJATJARA YANKUNYTJATJARA","SUBURB":"PIPALYATJARA","LATITUDE":-26.16345007,"LONGITUDE":129.1747242,"DISPATCH":"MINI"}},{"type":"Feature","geometry":{"type":"Point","coordinates":[129.1737060549924,-26.159118652381494]},"properties":{"OWNER_OPER":"Dept. Energy & Mining - RAES Scheme","STATION_NA":"Pipalyatjara Power Station","CAPACITY_M":0.84,"DEVELOPMEN":"In Service","UNIT_STATU":"Mini Grid - Prime","SCALE":"Small","SA_GOV_REG":"FAR NORTH","LOCAL_GOVE":"ANANGU PITJANTJATJARA YANKUNYTJATJARA","SUBURB":"PIPALYATJARA","LATITUDE":-26.15913618,"LONGITUDE":129.1737101,"DISPATCH":"MINI"}},{"type":"Feature","geometry":{"type":"Point","coordinates":[138.6383056639704,-34.969421386760075]},"properties":{"OWNER_OPER":"","STATION_NA":"Plant Research Centre","CAPACITY_M":null,"DEVELOPMEN":"In Service","UNIT_STATU":"Operational","SCALE":"Small","SA_GOV_REG":"SOUTHERN ADELAIDE","LOCAL_GOVE":"CITY OF MITCHAM","SUBURB":"URRBRAE","LATITUDE":-34.96944485,"LONGITUDE":138.6381908,"DISPATCH":"ON"}},{"type":"Feature","geometry":{"type":"Point","coordinates":[138.5333251952511,-34.93609619139801]},"properties":{"OWNER_OPER":"","STATION_NA":"Police Aircraft Services Section (Site 6C)","CAPACITY_M":0.03,"DEVELOPMEN":"In Service","UNIT_STATU":"Prime","SCALE":"Small","SA_GOV_REG":"WESTERN ADELAIDE","LOCAL_GOVE":"CITY OF WEST TORRENS","SUBURB":"ADELAIDE AIRPORT","LATITUDE":-34.93615331,"LONGITUDE":138.5331909,"DISPATCH":"ON"}},{"type":"Feature","geometry":{"type":"Point","coordinates":[138.5075073238387,-34.844299315931835]},"properties":{"OWNER_OPER":"","STATION_NA":"Port Adelaide Magistrates Court","CAPACITY_M":null,"DEVELOPMEN":"In Service","UNIT_STATU":"Operational","SCALE":"Small","SA_GOV_REG":"WESTERN ADELAIDE","LOCAL_GOVE":"CITY OF PORT ADELAIDE ENFIELD","SUBURB":"PORT ADELAIDE","LATITUDE":-34.84427268,"LONGITUDE":138.5073743,"DISPATCH":"ON"}},{"type":"Feature","geometry":{"type":"Point","coordinates":[137.76507568406566,-32.49420165973629]},"properties":{"OWNER_OPER":"","STATION_NA":"Port Augusta Police Headquarters","CAPACITY_M":null,"DEVELOPMEN":"In Service","UNIT_STATU":"Operational","SCALE":"Small","SA_GOV_REG":"FAR NORTH","LOCAL_GOVE":"PORT AUGUSTA CITY COUNCIL","SUBURB":"PORT AUGUSTA","LATITUDE":-32.49417823,"LONGITUDE":137.7650355,"DISPATCH":"ON"}},{"type":"Feature","geometry":{"type":"Point","coordinates":[137.8118896476219,-32.51080322312913]},"properties":{"OWNER_OPER":"DCS","STATION_NA":"Port Augusta Prison","CAPACITY_M":null,"DEVELOPMEN":"In Service","UNIT_STATU":"Operational","SCALE":"Small","SA_GOV_REG":"FAR NORTH","LOCAL_GOVE":"PORT AUGUSTA CITY COUNCIL","SUBURB":"STIRLING NORTH","LATITUDE":-32.51077551,"LONGITUDE":137.811791,"DISPATCH":"ON"}},{"type":"Feature","geometry":{"type":"Point","coordinates":[135.8046874995839,-34.70019531297061]},"properties":{"OWNER_OPER":"Synergen Power (engie)","STATION_NA":"Port Lincoln","CAPACITY_M":73.5,"DEVELOPMEN":"In Service","UNIT_STATU":"Operational","SCALE":"Large","SA_GOV_REG":"EYRE AND WESTERN","LOCAL_GOVE":"THE DC OF LOWER EYRE PENINSULA","SUBURB":"BOSTON","LATITUDE":-34.70025503,"LONGITUDE":135.8047166,"DISPATCH":""}},{"type":"Feature","geometry":{"type":"Point","coordinates":[135.7977294917281,-34.704101563415975]},"properties":{"OWNER_OPER":"DCS","STATION_NA":"Port Lincoln Prison","CAPACITY_M":null,"DEVELOPMEN":"In Service","UNIT_STATU":"Operational","SCALE":"Small","SA_GOV_REG":"EYRE AND WESTERN","LOCAL_GOVE":"THE DC OF LOWER EYRE PENINSULA","SUBURB":"DUCK PONDS","LATITUDE":-34.70417269,"LONGITUDE":135.7976247,"DISPATCH":"ON"}},{"type":"Feature","geometry":{"type":"Point","coordinates":[138.00531005945584,-33.17712402300572]},"properties":{"OWNER_OPER":"","STATION_NA":"Port Pirie Hospital","CAPACITY_M":null,"DEVELOPMEN":"In Service","UNIT_STATU":"Operational","SCALE":"Small","SA_GOV_REG":"YORKE AND MID NORTH","LOCAL_GOVE":"PORT PIRIE REGIONAL COUNCIL","SUBURB":"PORT PIRIE","LATITUDE":-33.17710324,"LONGITUDE":138.0052468,"DISPATCH":"ON"}},{"type":"Feature","geometry":{"type":"Point","coordinates":[138.49151611332798,-35.110290526946244]},"properties":{"OWNER_OPER":"Snowy Hydro","STATION_NA":"Port Stanvac","CAPACITY_M":58,"DEVELOPMEN":"In Service","UNIT_STATU":"Operational","SCALE":"Large","SA_GOV_REG":"SOUTHERN ADELAIDE","LOCAL_GOVE":"CITY OF ONKAPARINGA","SUBURB":"LONSDALE","LATITUDE":-35.11038181,"LONGITUDE":138.4914666,"DISPATCH":""}},{"type":"Feature","geometry":{"type":"Point","coordinates":[138.54309082036445,-34.87982177666942]},"properties":{"OWNER_OPER":"","STATION_NA":"Pregnancy Advisory Centre","CAPACITY_M":null,"DEVELOPMEN":"In Service","UNIT_STATU":"Operational","SCALE":"Small","SA_GOV_REG":"WESTERN ADELAIDE","LOCAL_GOVE":"CITY OF CHARLES STURT","SUBURB":"WOODVILLE","LATITUDE":-34.87983076,"LONGITUDE":138.5430216,"DISPATCH":"ON"}},{"type":"Feature","geometry":{"type":"Point","coordinates":[138.5333251952511,-34.883300780597324]},"properties":{"OWNER_OPER":"","STATION_NA":"Queen Elizabeth Hospital","CAPACITY_M":null,"DEVELOPMEN":"In Service","UNIT_STATU":"Operational","SCALE":"Small","SA_GOV_REG":"WESTERN ADELAIDE","LOCAL_GOVE":"CITY OF CHARLES STURT","SUBURB":"WOODVILLE SOUTH","LATITUDE":-34.8833781,"LONGITUDE":138.5332299,"DISPATCH":"ON"}},{"type":"Feature","geometry":{"type":"Point","coordinates":[137.97192382830565,-32.2393798829641]},"properties":{"OWNER_OPER":"Both owner and operator","STATION_NA":"Railway Bore Plant","CAPACITY_M":null,"DEVELOPMEN":"In Service","UNIT_STATU":"Operational","SCALE":"Small","SA_GOV_REG":"FAR NORTH","LOCAL_GOVE":"THE FLINDERS RANGES COUNCIL","SUBURB":"YARRAH","LATITUDE":-32.23943405,"LONGITUDE":137.9719083,"DISPATCH":"Off-Grid"}},{"type":"Feature","geometry":{"type":"Point","coordinates":[138.56872558641226,-34.87341308590749]},"properties":{"OWNER_OPER":"DFEEST","STATION_NA":"Regency Campus","CAPACITY_M":null,"DEVELOPMEN":"In Service","UNIT_STATU":"Prime","SCALE":"Small","SA_GOV_REG":"WESTERN ADELAIDE","LOCAL_GOVE":"CITY OF PORT ADELAIDE ENFIELD","SUBURB":"REGENCY PARK","LATITUDE":-34.87339196,"LONGITUDE":138.5687242,"DISPATCH":"ON"}},{"type":"Feature","geometry":{"type":"Point","coordinates":[140.74688720722338,-34.176879882867524]},"properties":{"OWNER_OPER":"SAFECOM","STATION_NA":"Renmark SA Metropolitan Fire Service Station","CAPACITY_M":null,"DEVELOPMEN":"In Service","UNIT_STATU":"Operational","SCALE":"Small","SA_GOV_REG":"MURRAY AND MALLEE","LOCAL_GOVE":"RENMARK PARINGA COUNCIL","SUBURB":"RENMARK","LATITUDE":-34.17685036,"LONGITUDE":140.7467988,"DISPATCH":"ON"}},{"type":"Feature","geometry":{"type":"Point","coordinates":[138.5892944340386,-34.99157714787992]},"properties":{"OWNER_OPER":"","STATION_NA":"Repatriation Hospital","CAPACITY_M":null,"DEVELOPMEN":"In Service","UNIT_STATU":"Operational","SCALE":"Small","SA_GOV_REG":"SOUTHERN ADELAIDE","LOCAL_GOVE":"CITY OF MITCHAM","SUBURB":"DAW PARK","LATITUDE":-34.99160875,"LONGITUDE":138.5892659,"DISPATCH":"ON"}},{"type":"Feature","geometry":{"type":"Point","coordinates":[138.59729003929397,-34.921997070321765]},"properties":{"OWNER_OPER":"","STATION_NA":"Roma Mitchell House (Building Owner)","CAPACITY_M":null,"DEVELOPMEN":"In Service","UNIT_STATU":"Operational","SCALE":"Small","SA_GOV_REG":"EASTERN ADELAIDE","LOCAL_GOVE":"ADELAIDE CITY COUNCIL","SUBURB":"ADELAIDE","LATITUDE":-34.921978179999996,"LONGITUDE":138.5972602,"DISPATCH":"ON"}},{"type":"Feature","geometry":{"type":"Point","coordinates":[136.8964843750648,-30.561706543466016]},"properties":{"OWNER_OPER":"","STATION_NA":"Roxby Downs Police Station","CAPACITY_M":null,"DEVELOPMEN":"In Service","UNIT_STATU":"Operational","SCALE":"Small","SA_GOV_REG":"FAR NORTH","LOCAL_GOVE":"MUNICIPAL COUNCIL OF ROXBY DOWNS","SUBURB":"ROXBY DOWNS","LATITUDE":-30.56172783,"LONGITUDE":136.8963899,"DISPATCH":"ON"}},{"type":"Feature","geometry":{"type":"Point","coordinates":[138.60870361268906,-34.92071533176937]},"properties":{"OWNER_OPER":"","STATION_NA":"Royal Adelaide Hospital","CAPACITY_M":null,"DEVELOPMEN":"In Service","UNIT_STATU":"Operational","SCALE":"Small","SA_GOV_REG":"EASTERN ADELAIDE","LOCAL_GOVE":"ADELAIDE CITY COUNCIL","SUBURB":"ADELAIDE","LATITUDE":-34.92070605,"LONGITUDE":138.6085741,"DISPATCH":"ON"}},{"type":"Feature","geometry":{"type":"Point","coordinates":[138.50628662107454,-34.95318603509651]},"properties":{"OWNER_OPER":"PIRSA","STATION_NA":"SA Aquatic Sciences Centre","CAPACITY_M":0.45,"DEVELOPMEN":"In Service","UNIT_STATU":"Operational","SCALE":"Small","SA_GOV_REG":"WESTERN ADELAIDE","LOCAL_GOVE":"CITY OF WEST TORRENS","SUBURB":"WEST BEACH","LATITUDE":-34.953178199999996,"LONGITUDE":138.5061937,"DISPATCH":"ON"}},{"type":"Feature","geometry":{"type":"Point","coordinates":[138.59729003929397,-34.925903319767144]},"properties":{"OWNER_OPER":"","STATION_NA":"SA Fire And Emergency Services Commission","CAPACITY_M":0.06,"DEVELOPMEN":"In Service","UNIT_STATU":"Operational","SCALE":"Small","SA_GOV_REG":"EASTERN ADELAIDE","LOCAL_GOVE":"ADELAIDE CITY COUNCIL","SUBURB":"ADELAIDE","LATITUDE":-34.92588096,"LONGITUDE":138.5972574,"DISPATCH":"ON"}},{"type":"Feature","geometry":{"type":"Point","coordinates":[138.48730468694157,-35.09649658181104]},"properties":{"OWNER_OPER":"SA Government","STATION_NA":"SA Government (Desal. Plant)","CAPACITY_M":122.5,"DEVELOPMEN":"In Service","UNIT_STATU":"Operational","SCALE":"Large","SA_GOV_REG":"SOUTHERN ADELAIDE","LOCAL_GOVE":"CITY OF ONKAPARINGA","SUBURB":"LONSDALE","LATITUDE":-35.09657461,"LONGITUDE":138.4872161,"DISPATCH":""}}]}