LONGITUDE,LATITUDE,SRCE_CNTRE,DEP_NAME,COMMODS,SIZE_VAL,GEOL_PROV,O_STRAT_NM,H_STRAT_NM
139.8257902,-32.3344035,pit,STARLIGHT DAM,Gold,Low Significance,ADELAIDE GEOSYNCLINE,quartz vein,Tarcowie Siltstone
139.6808862,-32.3355575,PIT,WOPPA BORE,Gold,Low Significance,ADELAIDE GEOSYNCLINE,quartz vein unit 4,Tapley Hill Formation
139.9029492,-32.3720825,shaft,NECTAR,Gold,Low Significance,ADELAIDE GEOSYNCLINE,quartz vein,Enorama Shale
139.8321512,-32.3685605,shaft,ELSIE MAY,Gold,Low Significance,ADELAIDE GEOSYNCLINE,quartz vein unit 4,Enorama Shale
139.8722332,-32.3867715,no.2 underlay,HOMEWARD BOUND,Gold,Low Significance,ADELAIDE GEOSYNCLINE,quartz vein,Enorama Shale
139.8287922,-32.3884055,diggings?,ODD TRICK,Gold,Low Significance,ADELAIDE GEOSYNCLINE,quartz vein unit 4,Enorama Shale
139.8413372,-32.4066215,workings,ELLA JONES,Gold,Low Significance,ADELAIDE GEOSYNCLINE,quartz vein unit 4,Enorama Shale
140.5621611,-32.2791625,workings,PREMIER,"Copper, Gold",Low Significance,ADELAIDE GEOSYNCLINE,hydrothermal alteration,Wilyerpa Formation
139.6562873,-32.2507175,white spoils?,TEETULPA WEST,Gold,Low Significance,ADELAIDE GEOSYNCLINE,quartz vein,Tapley Hill Formation
139.6381683,-32.2485385,qz vein,TEETULPA FAR WEST,Gold,Low Significance,ADELAIDE GEOSYNCLINE,quartz vein,Tapley Hill Formation
139.8578912,-32.3611805,shaft on track,BIRTHDAY,Gold,Low Significance,ADELAIDE GEOSYNCLINE,quartz vein,Enorama Shale
139.8502832,-32.3587635,costean,AURORA  AUSTRALIS,Gold,Low Significance,ADELAIDE GEOSYNCLINE,quartz vein unit 4,Enorama Shale
139.9107002,-32.3772465,shaft,NO GAMMON,Gold,Low Significance,ADELAIDE GEOSYNCLINE,quartz vein unit 4,Enorama Shale
140.3971672,-31.8246545,SHAFT,WAUKALOO,"Copper, Gold, Molybdenum",Locally Significant,WILLYAMA INLIERS (CURNAMONA PROVINCE),hydrothermal alteration,Ethiudna Calc-silicate Group
139.9100662,-31.8948905,PIT,BILLEROO HILL,"Copper, Gold",Low Significance,WILLYAMA INLIERS (CURNAMONA PROVINCE),hydrothermal alteration,Willyama Supergroup unit 19
140.2872802,-31.7856685,SHAFT,NANCATEE WELL,Gold,Low Significance,WILLYAMA INLIERS (CURNAMONA PROVINCE),quartz vein,Willyama Supergroup unit 19
139.7073362,-32.1688025,N slopes of low hill,MAYNARDS,Gold,Low Significance,ADELAIDE GEOSYNCLINE,quartz vein unit 4,Tapley Hill Formation
139.5648313,-32.0314635,workings,MONTE CHRISTO,Gold,Low Significance,ADELAIDE GEOSYNCLINE,quartz vein,Wilyerpa Formation
139.7108693,-31.8259575,,SPRING HILL,"Uranium, Gold, Uranium Oxide",Low Significance,WILLYAMA INLIERS (CURNAMONA PROVINCE),quartz vein,Willyama Supergroup unit 1
140.3202712,-32.2293235,shaft,OLARY,"Gold, Silver, Graphite",Low Significance,WILLYAMA INLIERS (CURNAMONA PROVINCE),hydrothermal alteration,Willyama Supergroup unit 9
140.2885782,-32.1191345,main shaft,WOMAN IN WHITE,"Gold, Corundum, Copper",Low Significance,WILLYAMA INLIERS (CURNAMONA PROVINCE),hydrothermal alteration,Abminga Subsuite
138.9735353,-33.3308585,,SCRUBBERS CAMP ALLUVIALS,Gold,Low Significance,TERTIARY PALAEOCHANNELS,Tertiary rocks,
140.3512351,-32.6267775,spoils,ROUND HILL EAST,Gold,Low Significance,DELAMERIAN OROGEN,quartz vein,Anabama Granite
140.3438461,-32.5510105,pit?,ESMONDE EAST,Gold,Low Significance,ADELAIDE GEOSYNCLINE,quartz vein,Mintaro Shale
140.3504531,-32.5431515,PIT,BONNIE KEITH EAST,Gold,Low Significance,ADELAIDE GEOSYNCLINE,quartz vein,Mintaro Shale
140.3425011,-32.5560255,CREEK,ESMONDE SOUTH,Gold,Low Significance,,Holocene alluvial/fluvial unit 1,
140.6500561,-32.4901415,,PEGLINE DAM WEST,"Copper, Gold",Low Significance,ADELAIDE GEOSYNCLINE,quartz vein unit 4,Benda Siltstone
140.2850101,-32.5094195,qz vein,TALTABOOKA,"Gold, Copper",Low Significance,ADELAIDE GEOSYNCLINE,quartz vein unit 4,Mintaro Shale
140.4748501,-32.1989645,near Hole M94RCD-GG,GREEN AND GOLD,"Copper, Gold",Low Significance,WILLYAMA INLIERS (CURNAMONA PROVINCE),Ethiudna Calc-silicate Group,Ethiudna Calc-silicate Group
140.2627492,-32.0870065,main shaft,PIMPONDA,"Copper, Gold",Low Significance,WILLYAMA INLIERS (CURNAMONA PROVINCE),quartz vein unit 3,Mesoproterozoic unit 1
137.4119904,-35.7577084,,KOHINOOR WEST,Gold,Low Significance,KANMANTOO TROUGH (ADELAIDE GEOSYNCLINE),quartz vein,Delamerian igneous unit 16
140.2759991,-32.5444135,trench,GOLDEN SOPHIA,Gold,Low Significance,ADELAIDE GEOSYNCLINE,quartz vein unit 4,Mintaro Shale
140.3170131,-32.6373105,costean,GOLDEN STREAM,Gold,Low Significance,DELAMERIAN OROGEN,quartz vein unit 4,Benda Siltstone
140.4074111,-32.5378855,workings?,CURRANT BUN WEST,Gold,Low Significance,ADELAIDE GEOSYNCLINE,quartz vein unit 4,Mintaro Shale
140.2246512,-32.5151965,ADIT,MOUNT QUONDONG,Gold,Low Significance,ADELAIDE GEOSYNCLINE,quartz vein,Benda Siltstone
140.3346291,-32.5514585,workings,FAUGH A BALLAGH,Gold,Low Significance,ADELAIDE GEOSYNCLINE,quartz vein unit 4,Willyama Supergroup
140.2211862,-32.5157615,PIT,SMITHS,Gold,Low Significance,ADELAIDE GEOSYNCLINE,quartz vein unit 4,Pualco Tillite
140.3166941,-32.4160945,shaft?,ERINGA,"Copper, Gold",Low Significance,ADELAIDE GEOSYNCLINE,quartz vein unit 4,Enorama Shale
140.2525092,-32.4487015,dark patch,LEYS,Gold,Low Significance,ADELAIDE GEOSYNCLINE,quartz vein unit 1,Enorama Shale
140.1605262,-32.3292265,workings?,GOLDEN DEWDROP,Gold,Low Significance,ADELAIDE GEOSYNCLINE,quartz vein,Tapley Hill Formation
140.1406522,-32.3635975,workings?,MIGO,Gold,Low Significance,ADELAIDE GEOSYNCLINE,quartz vein,Enorama Shale
140.1453642,-32.3655245,workings?,BOOMERANG,Gold,Low Significance,ADELAIDE GEOSYNCLINE,quartz vein unit 4,Enorama Shale
140.7313661,-32.4574146,qz vein?,PEAKED HILL EAST,Gold,Low Significance,ADELAIDE GEOSYNCLINE,quartz vein,Pualco Tillite
140.3703581,-32.5598515,pits,MARNA,Gold,Low Significance,ADELAIDE GEOSYNCLINE,quartz vein unit 4,Mintaro Shale
140.4124471,-32.5393195,workings?,CURRANT BUN,Gold,Low Significance,ADELAIDE GEOSYNCLINE,quartz vein unit 4,Mintaro Shale
140.3413661,-32.5258745,W group of workings,WESTONIA,Gold,Low Significance,ADELAIDE GEOSYNCLINE,quartz vein,Mintaro Shale
140.2872821,-32.7869965,near hole RC95AB 7,ANABAMA,"Copper, Silver, Gold, Cobalt, Molybdenum, Zinc",Locally Significant,ADELAIDE GEOSYNCLINE,Benda Siltstone,Yudnamutana Subgroup
140.2042252,-32.1842105,,FAUGH A BALLAGH,"Copper, Gold",Low Significance,CURNAMONA CRATON (CURNAMONA PROVINCE),Ethiudna Subgroup,Ethiudna Calc-silicate Group
140.3485801,-32.5665055,,PEARSONS,Gold,Low Significance,ADELAIDE GEOSYNCLINE,quartz vein unit 4,Mintaro Shale
138.9653444,-30.8925595,,PINDA SPRINGS,"Lead, Silver, Gold",Low Significance,ADELAIDE GEOSYNCLINE,quartz vein unit 4,Brachina Formation
140.3082442,-32.2408145,workings,MEGAWS,"Copper, Silver, Gold, Graphite, Lead, Zinc",Low Significance,WILLYAMA INLIERS (CURNAMONA PROVINCE),quartz vein unit 4,Willyama Supergroup unit 14
140.9095931,-32.2265256,Main Shaft,SCORPION,"Copper, Gold, Cobalt",Low Significance,WILLYAMA INLIERS (CURNAMONA PROVINCE),hydrothermal alteration,Willyama Supergroup
137.8036033,-35.7575954,,AMERICAN RIVER,Gold,Low Significance,KANMANTOO TROUGH (ADELAIDE GEOSYNCLINE),hydrothermal alteration,Tapanappa Formation
137.4180814,-35.7543414,,KOHINOOR,Gold,Low Significance,KANMANTOO TROUGH (ADELAIDE GEOSYNCLINE),quartz vein unit 4,Tapanappa Formation
137.7608263,-35.7285424,,DEBNEYS,Gold,Low Significance,KANMANTOO TROUGH (ADELAIDE GEOSYNCLINE),quartz vein,Tapanappa Formation
138.9552172,-33.9516065,,LAGOON HILL,Gold,Low Significance,ADELAIDE GEOSYNCLINE,quartz vein unit 4,Appila Tillite
139.8384862,-31.9791925,working,EGAN,"Copper, Gold, Tungsten",Low Significance,WILLYAMA INLIERS (CURNAMONA PROVINCE),hydrothermal alteration,Willyama Supergroup
134.961352,-30.6845213,SHAFT,COMPANY WELL,Gold,Low Significance,WILGENA SUBDOMAIN (GAWLER CRATON),quartz vein unit 4,Kenella Gneiss
134.4619881,-30.7058633,white patch on ridge,TOLMERS HILL,Gold,Low Significance,CHRISTIE SUBDOMAIN (GAWLER CRATON),quartz vein unit 4,Tarcoola Formation
134.1387181,-30.2165833,spoils,MALBOOMA,"Gold, Aluminium",Low Significance,CHRISTIE SUBDOMAIN (GAWLER CRATON),quartz vein,Muckanippie Suite
134.4852817,-30.7628392,MEIS,BARTLETTS,Gold,Low Significance,CHRISTIE SUBDOMAIN (GAWLER CRATON),quartz vein unit 4,Fabian Quartzite Member
140.5942831,-32.4370955,dump?,DUFFIELDS BORE,Gold,Low Significance,ADELAIDE GEOSYNCLINE,quartz vein,Pualco Tillite
133.4991603,-26.9292993,imm SE of tank,WELLS GRANITE DOWNS,Gold,Low Significance,MUSGRAVE PROVINCE,quartz vein unit 4,Wataru Gneiss
139.8135102,-32.3716785,workings,WESTWARD HO,Gold,Locally Significant,ADELAIDE GEOSYNCLINE,quartz vein unit 4,Enorama Shale
139.8345572,-32.3715595,shaft,EUDUNDA HOPE,Gold,Locally Significant,ADELAIDE GEOSYNCLINE,quartz vein unit 4,Enorama Shale
139.8663092,-32.3739235,shaft?,TROJAN,Gold,Low Significance,ADELAIDE GEOSYNCLINE,quartz vein unit 4,Enorama Shale
139.8237122,-32.3307755,white patch,STARLIGHT DAM NORTH,Gold,Low Significance,ADELAIDE GEOSYNCLINE,quartz vein unit 4,Tarcowie Siltstone
139.8924762,-32.2843975,SHAFT,MORIALPA EAST,Gold,Low Significance,ADELAIDE GEOSYNCLINE,quartz vein unit 4,Tapley Hill Formation
136.1107257,-34.2692484,,BURRAWING,"Copper, Gold",Low Significance,CLEVE SUBDOMAIN (GAWLER CRATON),Lower Middleback Jaspilite,Lower Middleback Jaspilite
139.8229672,-32.2733085,trench,BUMBUMBIE HILL,Gold,Low Significance,ADELAIDE GEOSYNCLINE,quartz vein unit 4,Wilyerpa Formation
140.5652151,-32.2650545,,LUXEMBURG,Gold,Low Significance,WILLYAMA INLIERS (CURNAMONA PROVINCE),quartz vein,Willyama Supergroup
140.5662621,-32.2682155,,QUEEN BEE,"Copper, Gold",Locally Significant,WILLYAMA INLIERS (CURNAMONA PROVINCE),quartz vein,Willyama Supergroup
140.3289201,-32.5529615,workings,LURON,Gold,Low Significance,ADELAIDE GEOSYNCLINE,quartz vein unit 4,Mintaro Shale
140.3632401,-32.5270695,workings,LION HILL,Gold,Low Significance,ADELAIDE GEOSYNCLINE,quartz vein,Pualco Tillite unit 4
140.0517342,-32.1983905,,MCLEANS,Gold,Low Significance,WILLYAMA INLIERS (CURNAMONA PROVINCE),quartz vein,Willyama Supergroup unit 25
140.0479362,-32.2315595,workings,WALPARUTA,"Copper, Gold",Low Significance,WILLYAMA INLIERS (CURNAMONA PROVINCE),Willyama Supergroup unit 8,Willyama Supergroup unit 8
140.0542242,-32.2016405,quartz vein,WALTER OUTALPA,Gold,Low Significance,WILLYAMA INLIERS (CURNAMONA PROVINCE),quartz vein,Willyama Supergroup unit 25
140.4591731,-32.0643825,open cut,MARY,"Copper, Gold",Low Significance,WILLYAMA INLIERS (CURNAMONA PROVINCE),quartz-feldpsar vein,Ethiudna Calc-silicate Group
140.4039592,-32.0185995,main shaft,PUTTS WELL,"Copper, Gold",Low Significance,WILLYAMA INLIERS (CURNAMONA PROVINCE),Bimba Formation,Mesoproterozoic unit 1
140.4152011,-32.2040485,sample ZA 25,MACDONALD HILL,"Copper, Gold",Low Significance,WILLYAMA INLIERS (CURNAMONA PROVINCE),Ethiudna Subgroup,Ethiudna Subgroup
140.2736052,-32.0072385,,MOUNT BULL,"Copper, Gold, Iron",Low Significance,WILLYAMA INLIERS (CURNAMONA PROVINCE),hydrothermal alteration,Willyama Supergroup
140.2558012,-32.4164665,line of workings,COPPERLINKA,Gold,Low Significance,ADELAIDE GEOSYNCLINE,quartz vein unit 4,Pepuarta Tillite
140.2714092,-32.2611755,workings,KINGS BLUFF,"Gold, Quartzite, Quartz",Low Significance,ADELAIDE GEOSYNCLINE,quartz vein unit 3,Wilyerpa Formation
138.9906933,-33.3090295,,OLD WOOKONGARIE,Gold,Low Significance,ADELAIDE GEOSYNCLINE,quartz vein,Undalya Quartzite
140.3316851,-32.6226315,spoils?,ROUND HILL CENTRAL,Gold,Low Significance,DELAMERIAN OROGEN,quartz vein,Anabama Granite
140.3431921,-32.5195845,SHAFT,GILDED MONSTER,Gold,Low Significance,ADELAIDE GEOSYNCLINE,quartz vein,Mintaro Shale
140.1338552,-32.3741505,rough centre of trench,GOLDEN BOOMERANG,Gold,Low Significance,ADELAIDE GEOSYNCLINE,quartz vein unit 4,Enorama Shale
140.5473961,-32.2017675,near drill hole,WILKINS,"Copper, Gold, Cobalt",Locally Significant,WILLYAMA INLIERS (CURNAMONA PROVINCE),Wiperaminga Subgroup,Wiperaminga Subgroup
140.1065182,-32.6411765,,WELSH PRINCE,Gold,Low Significance,ADELAIDE GEOSYNCLINE,quartz vein unit 4,Cradock Quartzite Member
137.2588804,-35.8214274,,DAWS,"Gold, Amethyst, Corundum, Heavy Minerals, Sapphire",Low Significance,,Holocene alluvial/fluvial unit 1,
134.562701,-30.6938343,,CURDNATTA,Gold,Low Significance,CHRISTIE SUBDOMAIN (GAWLER CRATON),quartz vein unit 4,Paxton Granite
134.499041,-30.6994243,shaft,ROYAL GEORGE,Gold,Low Significance,GAWLER CRATON,quartz vein unit 3,Hiltaba Suite
134.8323769,-32.8830863,,KATTATA,Gold,Low Significance,GAWLER CRATON,quartz vein,Hiltaba Suite
140.5826031,-32.2937105,dump?,BILLS HILL SOUTH,Gold,Low Significance,WILLYAMA INLIERS (CURNAMONA PROVINCE),quartz vein,Willyama Supergroup
139.8292772,-32.5479975,PIT,COCKSCOMB HILL,Gold,Low Significance,ADELAIDE GEOSYNCLINE,quartz vein unit 4,Nuccaleena Formation
138.9044342,-34.9585985,shaft,HONEYSUCKLE,Gold,Low Significance,ADELAIDE GEOSYNCLINE,quartz vein unit 4,Tapley Hill Formation
137.4588954,-35.7474744,,BOMB ALLEY,Gold,Low Significance,KANMANTOO TROUGH (ADELAIDE GEOSYNCLINE),breccia unit 1,Delamerian igneous unit 16
138.0182333,-35.7354245,,TIPPINS,Gold,Low Significance,ADELAIDE GEOSYNCLINE,quartz vein unit 4,Sturt Tillite
137.3144724,-35.7392544,,RAINBOWS END,Gold,Low Significance,KANMANTOO TROUGH (ADELAIDE GEOSYNCLINE),Tapanappa Formation,Tapanappa Formation
139.1582082,-34.8785975,pit?,KITTICOOLA EAST,Gold,Low Significance,KANMANTOO TROUGH (ADELAIDE GEOSYNCLINE),quartz vein unit 4,Backstairs Passage Formation
137.2303424,-35.7057784,,GRAINGERS SOUTH,Gold,Low Significance,KANMANTOO TROUGH (ADELAIDE GEOSYNCLINE),quartz vein,Kanmantoo Group
140.3401231,-32.5503145,workings,ESMONDE,Gold,Low Significance,ADELAIDE GEOSYNCLINE,quartz vein unit 4,Mintaro Shale
138.6631702,-35.4528205,dead tree,PRINCE ALFRED,"Nickel, Silver, Gold",Low Significance,KANMANTOO TROUGH (ADELAIDE GEOSYNCLINE),quartz vein unit 4,Balquhidder Formation
138.6581932,-35.5250015,trees,WOODS ALLUVIALS,Gold,Low Significance,,Pleistocene alluvial/fluvial sediments,
138.5762992,-35.6008125,qz float?,GLEN BAR,"Gold, Arsenic",Low Significance,KANMANTOO TROUGH (ADELAIDE GEOSYNCLINE),quartz vein unit 4,Balquhidder Formation
138.7586492,-35.3302135,near sheds on old tramway,BRADFORDS,"Copper, Gold",Low Significance,KANMANTOO TROUGH (ADELAIDE GEOSYNCLINE),quartz vein,Tapanappa Formation
138.4366452,-35.5224765,qz float,MCDONALD,Gold,Low Significance,KANMANTOO TROUGH (ADELAIDE GEOSYNCLINE),quartz vein,Tapanappa Formation
138.3833372,-35.5869885,,CORONATION BLOCKS,"Tungsten, Gold",Low Significance,KANMANTOO TROUGH (ADELAIDE GEOSYNCLINE),quartz vein,Tapanappa Formation
138.3756262,-35.5878815,creek,CALLAWONGA,"Gold, Tungsten",Low Significance,,Holocene alluvial/fluvial unit 1,
138.1834993,-35.6454435,clear patch in treed area,AARONS HOLE,Gold,Low Significance,KANMANTOO TROUGH (ADELAIDE GEOSYNCLINE),quartz vein,Backstairs Passage Formation
138.1330983,-35.6347955,shaft?,CAINS,"Arsenic, Gold",Low Significance,KANMANTOO TROUGH (ADELAIDE GEOSYNCLINE),quartz vein,Tapanappa Formation
138.1493383,-35.6249005,creek,COOALINGA CREEK,Gold,Low Significance,,Pleistocene alluvial/fluvial sediments,
138.1217043,-35.6391505,open cut,ROPERS,"Arsenic, Gold",Low Significance,KANMANTOO TROUGH (ADELAIDE GEOSYNCLINE),quartz vein unit 4,Backstairs Passage Formation
138.9235022,-35.1973805,,MONSTER LODE,"Gold, Copper",Low Significance,KANMANTOO TROUGH (ADELAIDE GEOSYNCLINE),quartz vein unit 4,Tapanappa Formation
138.6281792,-35.5631755,,CHAIRLIFT,Gold,Low Significance,KANMANTOO TROUGH (ADELAIDE GEOSYNCLINE),quartz vein,Encounter Bay Granite
138.3779742,-35.5844155,disturbed ground,SURPRISE,Gold,Low Significance,KANMANTOO TROUGH (ADELAIDE GEOSYNCLINE),quartz vein unit 4,Tapanappa Formation
138.4109632,-35.5976425,gully,BULLAPARATTA,Gold,Low Significance,,Holocene alluvial/fluvial unit 1,
138.9142882,-35.2237385,filled shaft?,CHELLASTON,"Silver, Gold",Low Significance,KANMANTOO TROUGH (ADELAIDE GEOSYNCLINE),quartz vein unit 4,Tapanappa Formation
138.9697782,-35.1085655,disturbed ground,SOUTH HILL,"Copper, Silver, Gold",Low Significance,KANMANTOO TROUGH (ADELAIDE GEOSYNCLINE),quartz vein,Tapanappa Formation
139.0374042,-35.1135565,near Leggs Shaft,BREMER,"Copper, Gold, Bismuth",Locally Significant,KANMANTOO TROUGH (ADELAIDE GEOSYNCLINE),quartz vein unit 3,Tapanappa Formation
138.9920362,-35.0911755,pit,PARINGA EAST,"Copper, Gold",Low Significance,KANMANTOO TROUGH (ADELAIDE GEOSYNCLINE),quartz vein,Tapanappa Formation
138.9855812,-35.1217215,open cut,ACLARE,"Lead, Silver, Gold, Zinc",Low Significance,KANMANTOO TROUGH (ADELAIDE GEOSYNCLINE),Tapanappa Formation,Tapanappa Formation
139.1270272,-34.0010825,qz blow?,CORONATION HILL,"Lead, Silver, Gold, Copper",Low Significance,ADELAIDE GEOSYNCLINE,quartz vein,Appila Tillite unit 1
139.0275892,-35.1179045,,WHEAL PIONEER,Gold,Low Significance,KANMANTOO TROUGH (ADELAIDE GEOSYNCLINE),quartz vein,Tapanappa Formation
138.9196162,-35.2516865,portal entrance,ANGAS,"Zinc, Silver, Gold, Copper, Lead",Locally Significant,KANMANTOO TROUGH (ADELAIDE GEOSYNCLINE),Tapanappa Formation,Tapanappa Formation
139.0148662,-35.1109355,quarry floor,LUCKY RIVALS,"Gold, Silver",Low Significance,KANMANTOO TROUGH (ADELAIDE GEOSYNCLINE),deep weathering,Tapanappa Formation
139.0924512,-35.0592485,,LADY JANE,"Gold, Arsenic, Copper",Low Significance,KANMANTOO TROUGH (ADELAIDE GEOSYNCLINE),quartz vein,Tapanappa Formation
138.9499832,-35.1891895,disturbed ground,WHEAL EVERLY,Gold,Low Significance,KANMANTOO TROUGH (ADELAIDE GEOSYNCLINE),quartz vein unit 4,Tapanappa Formation
139.1595752,-34.8468055,pit,PALMER HILL,"Gold, Copper",Low Significance,KANMANTOO TROUGH (ADELAIDE GEOSYNCLINE),quartz vein,Backstairs Passage Formation
139.1952942,-34.8070415,creek,MILENDELLA CREEK,Gold,Low Significance,,Holocene alluvial/fluvial unit 1,Backstairs Passage Formation
139.1494992,-34.8498935,,O.B.Y.,Gold,Low Significance,KANMANTOO TROUGH (ADELAIDE GEOSYNCLINE),quartz vein,Palmer Granite
139.1513822,-34.8537085,,PALMER GL 1665,Gold,Low Significance,KANMANTOO TROUGH (ADELAIDE GEOSYNCLINE),quartz vein,Palmer Granite
139.1505862,-34.8501805,pit,PALMER,Gold,Low Significance,KANMANTOO TROUGH (ADELAIDE GEOSYNCLINE),quartz vein unit 4,Palmer Granite
139.0486272,-34.7865575,dam in creek,DEWELLS,Gold,Low Significance,,Holocene alluvial/fluvial unit 1,Backstairs Passage Formation
139.1471282,-34.8491925,GL 1695,ANDERSON AND MADDEN,"Gold, Granite",Low Significance,KANMANTOO TROUGH (ADELAIDE GEOSYNCLINE),quartz vein,Palmer Granite
139.0033252,-35.0827165,,TRESEVEAN,"Copper, Gold",Low Significance,KANMANTOO TROUGH (ADELAIDE GEOSYNCLINE),quartz vein,Tapanappa Formation
139.0623662,-34.7177145,pit,THE HORSE,Gold,Low Significance,KANMANTOO TROUGH (ADELAIDE GEOSYNCLINE),quartz vein,Backstairs Passage Formation
139.0509702,-34.5656115,,STANDISH,Gold,Low Significance,,Holocene alluvial/fluvial unit 2,Kanmantoo Group
139.0449992,-34.5646145,,KALTUNGA,Gold,Low Significance,,Holocene alluvial/fluvial unit 2,Carrickalinga Head Formation
138.9873772,-34.7851525,,GLOVERS,Gold,Low Significance,KANMANTOO TROUGH (ADELAIDE GEOSYNCLINE),quartz vein,Carrickalinga Head Formation
138.9751202,-34.7902125,,GOLDEN CROWN NO.1,Gold,Low Significance,ADELAIDE GEOSYNCLINE,quartz vein unit 4,Saddleworth Formation
138.9772572,-34.7744715,,GOLDEN CROWN NO.2,Gold,Low Significance,ADELAIDE GEOSYNCLINE,quartz vein unit 4,Saddleworth Formation
138.9749472,-34.7790515,,GOLDEN CROWN NO.4,Gold,Low Significance,ADELAIDE GEOSYNCLINE,quartz vein unit 4,Saddleworth Formation
139.0338892,-35.0979055,,BREMER 4,"Copper, Gold",Low Significance,KANMANTOO TROUGH (ADELAIDE GEOSYNCLINE),hydrothermal alteration,Tapanappa Formation
139.2174872,-34.7213545,workings,KANAPPA SOUTH,Gold,Low Significance,KANMANTOO TROUGH (ADELAIDE GEOSYNCLINE),quartz vein unit 4,Carrickalinga Head Formation
139.0551652,-34.5716285,creek,CHIMNEY CREEK ALLUVIALS,Gold,Low Significance,TERTIARY PALAEOCHANNELS,Holocene alluvial/fluvial unit 2,Carrickalinga Head Formation
139.0396502,-34.5371195,creek,CLIFTON ALLUVIALS,Gold,Low Significance,TERTIARY PALAEOCHANNELS,Tertiary-Pleistocene alluvial/fluvial sediments,Carrickalinga Head Formation
139.1173872,-34.6979645,rough centre section 115,MUELLER,Gold,Low Significance,KANMANTOO TROUGH (ADELAIDE GEOSYNCLINE),quartz vein,Delamerian igneous unit 4
139.2134512,-34.7120525,trench?,WHEAL PROSPER,"Copper, Silver, Gold",Low Significance,KANMANTOO TROUGH (ADELAIDE GEOSYNCLINE),quartz vein unit 4,Carrickalinga Head Formation
139.0969762,-34.5220675,disturbed ground?,JACOB CREEK,Gold,Low Significance,ADELAIDE GEOSYNCLINE,quartz vein unit 4,Tarcowie Siltstone
139.1800612,-34.6672725,,DEWELL,Gold,Low Significance,KANMANTOO TROUGH (ADELAIDE GEOSYNCLINE),quartz vein,Kanmantoo Group
139.0341962,-34.5373925,,MENGLER HILL,Gold,Low Significance,,Miocene-Pliocene unit 2,Kanmantoo Group
139.0724022,-34.4680345,disturbed ground?,TRENGOFF,"Gold, Silver",Low Significance,KANMANTOO TROUGH (ADELAIDE GEOSYNCLINE),hydrothermal alteration,Angaston Marble
139.1453462,-34.8526035,,OMOND AND YOUNG,Gold,Low Significance,KANMANTOO TROUGH (ADELAIDE GEOSYNCLINE),quartz vein,Palmer Granite
138.9758702,-34.7966465,,BLUMBERG,Gold,Low Significance,KANMANTOO TROUGH (ADELAIDE GEOSYNCLINE),quartz vein,Burra Group
138.9684442,-34.7943205,,BLUMBERG ALLUVIALS,Gold,Low Significance,TERTIARY PALAEOCHANNELS,Miocene-Pliocene unit 2,Belair Subgroup
138.9845812,-34.7851125,,BROADBENTS ALLUVIALS,Gold,Low Significance,,Holocene alluvial/fluvial unit 1,
138.9828102,-34.7805225,,COBRA,Gold,Low Significance,ADELAIDE GEOSYNCLINE,quartz vein unit 4,Burra Group
138.9761012,-34.7921075,,DUSCOVITCHES GULLY,Gold,Low Significance,,Miocene-Pliocene unit 2,Burra Group
138.9791022,-34.7801175,shaft,GERMANIA,Gold,Low Significance,KANMANTOO TROUGH (ADELAIDE GEOSYNCLINE),quartz vein unit 4,Burra Group
138.9955572,-34.7716045,,HAEUSLERS,Gold,Low Significance,KANMANTOO TROUGH (ADELAIDE GEOSYNCLINE),quartz vein,Backstairs Passage Formation
138.9753642,-34.7885755,,FARGOS,"Clay, Gold, Shale",Low Significance,ADELAIDE GEOSYNCLINE,Tertiary-Pleistocene regolith/colluvial sediments,Saddleworth Formation
138.9693552,-34.7963655,,HYNES ALLUVIALS,Gold,Low Significance,TERTIARY PALAEOCHANNELS,Holocene alluvial/fluvial unit 1,
138.9755302,-34.7950105,,BIRTHDAY GIFT,Gold,Low Significance,ADELAIDE GEOSYNCLINE,quartz vein unit 4,Burra Group
138.9973502,-34.7868175,,NAZA BAZA,Gold,Low Significance,KANMANTOO TROUGH (ADELAIDE GEOSYNCLINE),quartz vein unit 4,Backstairs Passage Formation
138.9830792,-34.7710585,,PROSPERITY,Gold,Low Significance,KANMANTOO TROUGH (ADELAIDE GEOSYNCLINE),quartz vein unit 4,Carrickalinga Head Formation
138.9897602,-34.7897815,near large trees,YOUNG AUSTRALIAN,Gold,Low Significance,KANMANTOO TROUGH (ADELAIDE GEOSYNCLINE),quartz vein unit 4,Saddleworth Formation
138.9742282,-34.7946275,,WICKHAMS,"Gold, Clay, Kaolin",Low Significance,ADELAIDE GEOSYNCLINE,quartz vein unit 4,Saddleworth Formation
138.9713962,-34.7852945,whitish patch,VICTORY,Gold,Low Significance,ADELAIDE GEOSYNCLINE,deep weathering,Burra Group
138.9716972,-34.7872085,tree,ROSS,Gold,Low Significance,,Holocene alluvial/fluvial unit 1,
138.9757672,-34.7791485,,PRINCE OF WALES,Gold,Low Significance,ADELAIDE GEOSYNCLINE,quartz vein unit 4,Saddleworth Formation
138.9737952,-34.7959825,,PIPE CLAY REEF,Gold,Low Significance,ADELAIDE GEOSYNCLINE,quartz vein,Saddleworth Formation
138.9691592,-34.7874205,pit?,MADDENS,Gold,Low Significance,ADELAIDE GEOSYNCLINE,quartz vein,Saddleworth Formation
138.9753992,-34.7909835,,LUCKY HIT JUNCTION,Gold,Low Significance,ADELAIDE GEOSYNCLINE,quartz vein,Burra Group
138.9744122,-34.7918625,,LILIAN,Gold,Low Significance,ADELAIDE GEOSYNCLINE,quartz vein,Saddleworth Formation
138.9714602,-34.7936015,,HIDDEN SECRET,Gold,Low Significance,KANMANTOO TROUGH (ADELAIDE GEOSYNCLINE),quartz vein unit 4,Burra Group
138.9703432,-34.7937385,,GOLDEN HOPE,Gold,Low Significance,KANMANTOO TROUGH (ADELAIDE GEOSYNCLINE),quartz vein,Saddleworth Formation
138.9735462,-34.7911265,,GOLDEN CROWN NO.3,Gold,Low Significance,ADELAIDE GEOSYNCLINE,quartz vein unit 4,Burra Group
138.9684552,-34.7921185,,GOLDEN BLOSSOM,"Ochre, Gold",Low Significance,ADELAIDE GEOSYNCLINE,quartz vein unit 4,Saddleworth Formation
138.9688512,-34.7910045,,ELEANOR,Gold,Low Significance,ADELAIDE GEOSYNCLINE,deep weathering,Burra Group
138.9718262,-34.7944975,hole DH 3,BLUMBERG PROSPECTING,Gold,Low Significance,ADELAIDE GEOSYNCLINE,quartz vein unit 4,Saddleworth Formation
138.9756392,-34.7830355,,BELCHERS,"Gold, Clay",Low Significance,KANMANTOO TROUGH (ADELAIDE GEOSYNCLINE),quartz vein unit 4,Burra Group
139.2710683,-32.7423775,,ROBERTSONS,"Copper, Gold",Low Significance,ADELAIDE GEOSYNCLINE,quartz vein unit 4,Tarcowie Siltstone
139.3024543,-32.0133835,diggings,ORAMA HILL,Gold,Low Significance,ADELAIDE GEOSYNCLINE,quartz vein unit 4,Wilyerpa Formation
139.2912413,-32.8279205,adit?,NACKARA REWARD,Gold,Low Significance,ADELAIDE GEOSYNCLINE,quartz vein,Ulupa Siltstone
139.3040043,-32.7286315,workings,LAMBERTS,Gold,Low Significance,ADELAIDE GEOSYNCLINE,quartz vein unit 4,Appila Tillite
138.6036742,-35.5377215,white spoils?,HAITS,Gold,Low Significance,KANMANTOO TROUGH (ADELAIDE GEOSYNCLINE),quartz vein,Balquhidder Formation
138.9970742,-34.7989735,,BLUMBERG BOULDER,Gold,Low Significance,KANMANTOO TROUGH (ADELAIDE GEOSYNCLINE),quartz vein unit 4,Kanmantoo Group
138.9807992,-34.8298985,creek bed,BLUMBERG UNITED,Gold,Low Significance,TERTIARY PALAEOCHANNELS,Holocene alluvial/fluvial unit 2,quartz vein unit 4
138.9827652,-34.8255135,creek bed,BERLING,Gold,Low Significance,,Holocene alluvial/fluvial unit 2,Backstairs Passage Formation
138.9821572,-34.8520555,near hole BT 2,BURTONS,Gold,Low Significance,KANMANTOO TROUGH (ADELAIDE GEOSYNCLINE),quartz vein unit 4,Backstairs Passage Formation
138.9718832,-34.7948035,,BIRDWOOD,"Shale, Gold, Clay, Kaolin, Sandstone",Locally Significant,ADELAIDE GEOSYNCLINE,Tertiary-Pleistocene regolith/colluvial sediments,Saddleworth Formation
138.9868032,-34.7763545,workings,ALLEN AND DRIVER,Gold,Low Significance,KANMANTOO TROUGH (ADELAIDE GEOSYNCLINE),quartz vein,Kanmantoo Group
138.9772972,-34.7718695,,ALEXANDER ALLUVIALS,Gold,Low Significance,TERTIARY PALAEOCHANNELS,Miocene-Pliocene unit 2,Burra Group
138.9841472,-34.7711905,,BLACK DOG,Gold,Low Significance,KANMANTOO TROUGH (ADELAIDE GEOSYNCLINE),quartz vein unit 4,Carrickalinga Head Formation
139.3546264,-30.1528015,No.3 underlie?,GRAND JUNCTION,"Copper, Gold, Cobalt",Low Significance,ADELAIDE GEOSYNCLINE,hydrothermal alteration,Paralana Quartzite
139.1337593,-32.2035815,spoils?,ERINA,"Copper, Gold",Low Significance,ADELAIDE GEOSYNCLINE,quartz vein unit 4,Tarcowie Siltstone
139.1090823,-32.9742475,,HENNIGS COMMONWEALTH,"Gold, Copper",Low Significance,ADELAIDE GEOSYNCLINE,quartz vein unit 4,Appila Tillite
139.3989124,-30.2969725,trench,BARRARARUNA,"Copper, Gold",Low Significance,CURNAMONA CRATON (CURNAMONA PROVINCE),Skillogalee Dolomite,Skillogalee Dolomite unit 6
139.3171364,-30.4162085,,O'DONOGHUES CASTLE,"Copper, Silver, Gold, Cobalt",Low Significance,ADELAIDE GEOSYNCLINE,hydrothermal alteration,Skillogalee Dolomite
139.6042624,-29.9800875,,GOLDEN POLE,"Copper, Gold",Low Significance,CURNAMONA CRATON (CURNAMONA PROVINCE),quartz vein,Fitton Formation unit 3
139.3326324,-30.1581365,,WALLACE GULLY,"Gold, Copper",Low Significance,ADELAIDE GEOSYNCLINE,Holocene alluvial/fluvial unit 2,Bolla Bollana Tillite
139.2335774,-30.2132875,underlay shaft?,WHEAL TURNER,"Copper, Gold",Low Significance,ADELAIDE GEOSYNCLINE,hydrothermal alteration,Wortupa Quartzite
139.1685784,-31.5302285,creek junction,NANTAB CREEK,Gold,Low Significance,,Holocene alluvial/fluvial unit 1,
139.6338604,-29.9605915,drill pad,BRINDANA GORGE,"Copper, Silver, Gold",Low Significance,ADELAIDE GEOSYNCLINE,hydrothermal alteration,Wattleowie Granite
139.3147343,-32.2813035,pit?,SPOTSWOOD HILL,Gold,Low Significance,ADELAIDE GEOSYNCLINE,quartz vein unit 4,Appila Tillite
139.4207473,-32.2622495,,MOUNT KINTORE,Gold,Low Significance,ADELAIDE GEOSYNCLINE,quartz vein,Appila Tillite
140.2191702,-32.1150265,shaft,PERRYHUMUCK,"Copper, Gold",Low Significance,WILLYAMA INLIERS (CURNAMONA PROVINCE),hydrothermal alteration,Willyama Supergroup
139.3551244,-30.1042505,old drill pad,GREENHILL,"Copper, Gold",Low Significance,ADELAIDE GEOSYNCLINE,quartz vein,Blue Mine Conglomerate
139.5622904,-30.0085095,crater,MOUNT FITTON SOUTH,"Copper, Silver, Gold",Low Significance,ADELAIDE GEOSYNCLINE,Golden Pole Granite,Mount Neill Granite
139.3589494,-30.1577035,,MOUNT MCDONNELL,"Copper, Gold, Bismuth",Low Significance,ADELAIDE GEOSYNCLINE,hydrothermal alteration,Wywyana Formation
139.0898403,-32.7800945,pit,APPLEBYS,Gold,Low Significance,ADELAIDE GEOSYNCLINE,quartz vein unit 4,Tapley Hill Formation
139.0914403,-32.7801635,pit,PADDYS GUN,Gold,Low Significance,ADELAIDE GEOSYNCLINE,quartz vein unit 4,Tapley Hill Formation
139.0939793,-32.7812395,pit,WALLAROO UNITED,Gold,Low Significance,ADELAIDE GEOSYNCLINE,quartz vein unit 4,Tapley Hill Formation
139.4203874,-30.2739555,disturbed ground?,WHITE ANTS,"Copper, Gold",Low Significance,ADELAIDE GEOSYNCLINE,quartz vein,Wooltana Volcanics
139.0073734,-30.9793815,tree,WIRRAPOWIE,"Copper, Silver, Gold",Low Significance,ADELAIDE GEOSYNCLINE,hydrothermal alteration,Wonoka Formation
139.2423044,-30.4379615,shaft collar,WORTURPA,"Copper, Gold",Low Significance,ADELAIDE GEOSYNCLINE,quartz vein,Trezona Formation
139.3468844,-30.1565675,drillpad,SIR DOMINIC,"Copper, Gold",Low Significance,ADELAIDE GEOSYNCLINE,hydrothermal alteration,Wywyana Formation
139.3355494,-30.1514625,white o/c,JUBILEE,"Copper, Gold",Low Significance,ADELAIDE GEOSYNCLINE,hydrothermal alteration,Tapley Hill Formation
139.3793364,-30.3302945,workings,LIVELYS FIND,Gold,Low Significance,ADELAIDE GEOSYNCLINE,hydrothermal alteration,Blue Mine Conglomerate
139.0960883,-32.7950255,pit,MOUNT EILEEN,Gold,Low Significance,ADELAIDE GEOSYNCLINE,quartz vein unit 4,Tindelpina Shale Member
138.7734042,-35.0803245,old diggings on fenceline,WINDLASS HILL,Gold,Low Significance,TERTIARY PALAEOCHANNELS,Tertiary-Pleistocene alluvial/fluvial sediments,
139.0872793,-32.7850155,shaft,QUEEN MAY,Gold,Low Significance,ADELAIDE GEOSYNCLINE,Holocene alluvial/fluvial unit 1,
139.0883143,-32.7840845,shaft,JUBILEE,Gold,Low Significance,ADELAIDE GEOSYNCLINE,quartz vein unit 4,Appila Tillite
139.0888853,-32.7873395,workings?,ROWES,Gold,Low Significance,ADELAIDE GEOSYNCLINE,quartz vein,Appila Tillite
139.0612963,-32.8732585,trench,CONDAH HILL,Gold,Low Significance,TERTIARY PALAEOCHANNELS,Pleistocene alluvial/fluvial sediments,
139.0614273,-32.8692265,,GOLDEN FIELD,Gold,Low Significance,TERTIARY PALAEOCHANNELS,Tertiary rocks,
139.0630733,-32.8696795,,HILL VIEW ALLUVIALS,Gold,Low Significance,TERTIARY PALAEOCHANNELS,Tertiary rocks,
139.0626533,-32.8780045,,LAST HOPE,Gold,Low Significance,TERTIARY PALAEOCHANNELS,Holocene alluvial/fluvial unit 1,
139.0612533,-32.8782325,,RAINBIRD,Gold,Low Significance,TERTIARY PALAEOCHANNELS,Holocene alluvial/fluvial unit 1,
137.2760614,-35.7330694,,CYGNET,Gold,Low Significance,KANMANTOO TROUGH (ADELAIDE GEOSYNCLINE),sheared rocks,Tapanappa Formation
140.3781321,-32.5601605,trench,MARNA EAST,Gold,Low Significance,ADELAIDE GEOSYNCLINE,quartz vein,Belair Subgroup
140.9380101,-32.2496386,floor of open cut,MUTOOROO,"Copper, Gold, Cobalt, Sulphur",Locally Significant,WILLYAMA INLIERS (CURNAMONA PROVINCE),Palaeoproterozoic unit 2,Willyama Supergroup
140.3395601,-32.5399375,qz vein?,BONNIE KEITH,Gold,Low Significance,ADELAIDE GEOSYNCLINE,quartz vein unit 3,Mintaro Shale
134.726965,-31.0601353,near GLAC24,TUNKILLIA WELL,Gold,Low Significance,NUYTS SUBDOMAIN (GAWLER CRATON),quartz vein unit 4,Hiltaba Suite
140.7869711,-32.1023336,near hole FLBRNDHD0006,WOMPINNIE EAST,"Copper, Gold",Low Significance,CURNAMONA CRATON (CURNAMONA PROVINCE),hydrothermal alteration,Willyama Supergroup
134.536244,-30.7086673,head frame,TARCOOLA BLOCKS,Gold,Locally Significant,CHRISTIE SUBDOMAIN (GAWLER CRATON),quartz vein,Tarcoola Formation
139.2466402,-34.4968075,creek bed,KEYNETON,"Arsenic, Gold",Low Significance,,Quaternary rocks,
139.2227072,-34.6440615,workings,MOUNT RHINE,"Silver, Gold, Ochre, Lead",Low Significance,KANMANTOO TROUGH (ADELAIDE GEOSYNCLINE),Milendella Limestone Member,Backstairs Passage Formation
139.2201782,-34.7238165,trench,SANDERSON,"Copper, Gold",Low Significance,KANMANTOO TROUGH (ADELAIDE GEOSYNCLINE),quartz vein unit 4,Carrickalinga Head Formation
139.0316012,-34.5504235,,SCHLINKE GULLY,Gold,Low Significance,KANMANTOO TROUGH (ADELAIDE GEOSYNCLINE),quartz vein unit 4,Carrickalinga Head Formation
139.0830752,-35.0115095,pit?,HYLANDS GREAT GUN,Gold,Low Significance,KANMANTOO TROUGH (ADELAIDE GEOSYNCLINE),quartz vein unit 4,Tapanappa Formation
139.8477202,-32.3980195,workings,MANNAHILL EURO,Gold,Low Significance,ADELAIDE GEOSYNCLINE,quartz vein unit 4,Enorama Shale
140.5657401,-32.2662285,,JOHN BROWN REEF,Gold,Low Significance,WILLYAMA INLIERS (CURNAMONA PROVINCE),quartz vein,Mesoproterozoic unit 1
134.541349,-30.7037243,near hole TPR005,DALYS DREAM,Gold,Low Significance,GAWLER CRATON,hydrothermal alteration,Tarcoola Formation
135.1235609,-31.0824173,,FABIAN GLENLOTH,Gold,Low Significance,CHRISTIE SUBDOMAIN (GAWLER CRATON),quartz vein,Glenloth Granite
135.113182,-31.1001303,,FABIAN NO.1,Gold,Low Significance,CHRISTIE SUBDOMAIN (GAWLER CRATON),quartz vein,Glenloth Granite
135.073426,-31.1215803,shaft,FABIAN NO.2,Gold,Low Significance,CHRISTIE SUBDOMAIN (GAWLER CRATON),quartz vein,Glenloth Granite
135.1228839,-31.0775823,,FABIAN NO.3,Gold,Low Significance,CHRISTIE SUBDOMAIN (GAWLER CRATON),quartz vein,Glenloth Granite
135.110003,-31.0798403,,GLENLOTH WELL,Gold,Low Significance,CHRISTIE SUBDOMAIN (GAWLER CRATON),quartz vein,Glenloth Granite
133.4434172,-30.2097553,hole 99MNAR234,MONSOON,Gold,Low Significance,CHRISTIE SUBDOMAIN (GAWLER CRATON),hydrothermal alteration,Christie Gneiss
137.1877596,-33.1302654,near hole MBR-117,MOOLA,"Copper, Gold",Low Significance,MOONTA SUBDOMAIN (GAWLER CRATON),hydrothermal alteration,Palaeoproterozoic rocks
134.790084,-31.6661273,,MYALL,Gold,Low Significance,GAWLER RANGE VOLCANIC PROVINCE,hydrothermal alteration,Tunkillia Suite
135.08511,-31.0799283,,NIL DESPERANDUM,Gold,Low Significance,WILGENA SUBDOMAIN (GAWLER CRATON),quartz vein,Glenloth Granite
134.998307,-30.8641993,,NORTHWEST PROSPECTING,Gold,Low Significance,WILGENA SUBDOMAIN (GAWLER CRATON),hydrothermal alteration,Kenella Gneiss
135.1238149,-31.0908453,,PAXTONS,Gold,Low Significance,WILGENA SUBDOMAIN (GAWLER CRATON),quartz vein,Glenloth Granite
135.1217059,-31.0908923,,PIONEER,Gold,Low Significance,CHRISTIE SUBDOMAIN (GAWLER CRATON),quartz vein,Glenloth Granite
135.1205879,-31.0853443,,PIONEER EXTENSION,Gold,Low Significance,WILGENA SUBDOMAIN (GAWLER CRATON),quartz vein,Glenloth Granite
134.4068811,-30.7008413,near hole WB10,WARBURTON WEST,Gold,Low Significance,GAWLER CRATON,hydrothermal alteration,Tarcoola Formation
134.548661,-30.7041993,,WARRIGAL EAST,Gold,Low Significance,CHRISTIE SUBDOMAIN (GAWLER CRATON),quartz vein unit 4,Tarcoola Formation
138.5497405,-31.1230144,dumps?,MOUNT MARY,"Copper, Gold",Low Significance,ADELAIDE GEOSYNCLINE,quartz vein,Nuccaleena Formation
138.9760852,-34.7946585,,MISS CONSTANCE,Gold,Low Significance,KANMANTOO TROUGH (ADELAIDE GEOSYNCLINE),quartz vein unit 4,Saddleworth Formation
138.9705762,-34.7954415,,DAN OCONNELL,Gold,Low Significance,ADELAIDE GEOSYNCLINE,quartz vein unit 4,Burra Group
138.9753652,-34.7947385,,PHYLLIS MAY,"Gold, Kaolin",Low Significance,ADELAIDE GEOSYNCLINE,Saddleworth Formation,Saddleworth Formation
138.9775882,-34.7957655,,GOLDEN FOX,Gold,Low Significance,ADELAIDE GEOSYNCLINE,quartz vein unit 4,Burra Group
138.6626801,-34.9712795,,EAGLE SILVER MINING,"Lead, Silver, Gold",Low Significance,ADELAIDE GEOSYNCLINE,quartz vein unit 4,Saddleworth Formation
138.7248502,-34.8641195,,ATHELSTONE,Gold,Low Significance,ADELAIDE GEOSYNCLINE,Holocene alluvial/fluvial unit 1,
138.9726242,-34.7841915,,REIDS SYNDICATE,Gold,Low Significance,ADELAIDE GEOSYNCLINE,quartz vein unit 4,Saddleworth Formation
138.9803132,-34.7935695,,LUCKY HORSESHOE,Gold,Low Significance,KANMANTOO TROUGH (ADELAIDE GEOSYNCLINE),quartz vein unit 4,Carrickalinga Head Formation
138.9894842,-34.7700795,,KATHLEEN,Gold,Low Significance,KANMANTOO TROUGH (ADELAIDE GEOSYNCLINE),quartz vein unit 4,Backstairs Passage Formation
138.9898242,-34.7686165,,HANNAFORDS REEF,Gold,Low Significance,KANMANTOO TROUGH (ADELAIDE GEOSYNCLINE),quartz vein unit 4,Kanmantoo Group
138.9712712,-34.7957135,,HAKLO,Gold,Low Significance,ADELAIDE GEOSYNCLINE,quartz vein unit 4,Saddleworth Formation
138.9779922,-34.7838875,,ROBBIE BURNS,Gold,Low Significance,KANMANTOO TROUGH (ADELAIDE GEOSYNCLINE),quartz vein unit 4,Carrickalinga Head Formation
136.7485907,-30.6206854,near drill hole ACD 1,ACROPOLIS,"Copper, Gold, Iron, Rare Earths, Uranium",Locally Significant,GAWLER CRATON,skarn,Gawler Range Volcanics
137.1744907,-30.7843714,near hole DRD 1,DROMEDARY DAM,"Copper, Silver, Gold",Low Significance,GAWLER CRATON,quartz vein unit 4,Palaeoproterozoic rocks
138.8934102,-34.7451115,abdn workings,DELORAINE QUEEN,Gold,Low Significance,ADELAIDE GEOSYNCLINE,quartz vein unit 4,Burra Group
138.8506352,-34.7477905,creek bed,DEVILS GULLY,Gold,Low Significance,,Holocene alluvial/fluvial unit 2,
138.8744672,-34.7228865,,EASTER GIFT,Gold,Locally Significant,TERTIARY PALAEOCHANNELS,Tertiary-Pleistocene rocks,
138.8360292,-34.6623585,,EDWARDS RUSH,Gold,Low Significance,,Miocene-Pliocene unit 2,
138.8221282,-34.6594985,shaft,ELDORADO,Gold,Low Significance,ADELAIDE GEOSYNCLINE,quartz vein unit 4,Emeroo Subgroup
138.8966802,-34.6850335,~no.2 shaft,NEW EMILY,Gold,Low Significance,ADELAIDE GEOSYNCLINE,quartz vein unit 4,Burra Group
138.8968132,-34.6820705,creek bed,EMILY ALLUVIALS,Gold,Low Significance,,Holocene alluvial/fluvial unit 2,
138.8286322,-34.7072135,,EXCELSIOR,"Gold, Copper",Low Significance,ADELAIDE GEOSYNCLINE,quartz vein unit 4,Barossa Complex
138.7440152,-34.8846955,bend in track,MOUNT LILY,"Lead, Silver, Gold, Cobalt, Copper",Low Significance,ADELAIDE GEOSYNCLINE,quartz vein,Montacute Dolomite
138.7282922,-34.8953305,track in gully,MOUNT STAINBANK,"Copper, Silver, Gold, Limestone, Lead",Low Significance,ADELAIDE GEOSYNCLINE,quartz vein unit 4,Woolshed Flat Shale
138.7158652,-34.9253235,treed gully,NORTON SUMMIT,Gold,Low Significance,ADELAIDE GEOSYNCLINE,quartz vein unit 4,Woolshed Flat Shale
138.9006542,-34.6418905,road,LYNDOCH VALLEY,"Copper, Gold",Low Significance,ADELAIDE GEOSYNCLINE,quartz vein unit 4,Skillogalee Dolomite
138.6015242,-34.9652425,trees,UNLEY PARK,Gold,Low Significance,,Holocene alluvial/fluvial unit 2,
138.7490172,-34.9539345,qz blow?,URAIDLA,"Gold, Tin",Low Significance,ADELAIDE GEOSYNCLINE,quartz vein unit 4,Basket Range Sandstone
135.098725,-31.1024613,,GOLDEN STAIRS,Gold,Low Significance,CHRISTIE SUBDOMAIN (GAWLER CRATON),quartz vein,Glenloth Granite
134.0175461,-29.5853993,near hole 96gbrc269,GOLF BORE,Gold,Locally Significant,CHRISTIE SUBDOMAIN (GAWLER CRATON),quartz vein,Archaean rocks
134.562203,-30.6953933,,GOVERNMENT,Gold,Low Significance,GAWLER CRATON,quartz vein,Paxton Granite
138.8243032,-34.7002165,shaft,GODDARDS AMALGAMATED,"Copper, Gold",Low Significance,ADELAIDE GEOSYNCLINE,quartz vein unit 4,Barossa Complex
134.544302,-30.7062123,,WARRIGAL SOUTH,Gold,Low Significance,CHRISTIE SUBDOMAIN (GAWLER CRATON),quartz vein unit 4,Tarcoola Formation
134.997102,-30.8654763,,WILGENA ENTERPRISE,Gold,Low Significance,CHRISTIE SUBDOMAIN (GAWLER CRATON),quartz vein unit 4,Kenella Gneiss
135.071881,-31.0876323,,YARRAWONGA,Gold,Low Significance,WILGENA SUBDOMAIN (GAWLER CRATON),quartz vein,Glenloth Granite
138.8929242,-34.7454185,trench?,LYGIZOS,Gold,Low Significance,ADELAIDE GEOSYNCLINE,quartz vein,Tapley Hill Formation
138.8539092,-34.7056545,,MALCOLM CREEK,Gold,Low Significance,,Holocene alluvial/fluvial unit 1,
138.8218102,-34.6505665,,MALCOLMS BAROSSA,"Copper, Gold",Low Significance,ADELAIDE GEOSYNCLINE,quartz vein unit 4,Emeroo Subgroup
138.8532552,-34.7225025,N end cleared area in creek,MARY GULLY,Gold,Low Significance,,Holocene alluvial/fluvial unit 1,
138.8175172,-34.6572255,banks of small tributary ck,MCKINLAYS GULLY,Gold,Low Significance,,Holocene alluvial/fluvial unit 2,
138.8361272,-34.6564715,workings?,MCROBIES,Gold,Low Significance,ADELAIDE GEOSYNCLINE,quartz vein unit 4,Barossa Complex
138.8701932,-34.6836715,track,MELVILLES,Gold,Low Significance,TERTIARY PALAEOCHANNELS,Miocene-Pliocene unit 2,
138.8212252,-34.6648195,main shaft,MENZIES BAROSSA,Gold,Low Significance,ADELAIDE GEOSYNCLINE,quartz vein unit 1,Barossa Complex
134.994941,-30.8669603,,HENDERSON,Gold,Low Significance,CHRISTIE SUBDOMAIN (GAWLER CRATON),hydrothermal alteration,Mulgathing Complex
135.112619,-31.0882913,workings?,HARRYS,Gold,Low Significance,CHRISTIE SUBDOMAIN (GAWLER CRATON),quartz vein,Glenloth Granite
138.7506342,-34.8991895,creek bed,MORIALTA ALLUVIALS,Gold,Low Significance,,Holocene alluvial/fluvial unit 2,
134.996385,-30.8663093,,WARBURTON,Gold,Low Significance,WILGENA SUBDOMAIN (GAWLER CRATON),quartz vein,Kenella Gneiss
135.047928,-31.0987633,workings,LADY PAULINE,Gold,Low Significance,CHRISTIE SUBDOMAIN (GAWLER CRATON),quartz vein,Glenloth Granite
135.1230819,-31.0763363,imm N of Fabian 3,COLLINS,Gold,Low Significance,CHRISTIE SUBDOMAIN (GAWLER CRATON),quartz vein,Glenloth Granite
139.0857422,-34.6227115,,EDEN VALLEY,Gold,Low Significance,KANMANTOO TROUGH (ADELAIDE GEOSYNCLINE),quartz vein,Delamerian igneous unit 4
139.0518812,-34.5732895,battery area,GOLDEN GATE,Gold,Low Significance,KANMANTOO TROUGH (ADELAIDE GEOSYNCLINE),quartz vein,Carrickalinga Head Formation
135.098672,-31.0916063,,LINGA LONGA,Gold,Low Significance,CHRISTIE SUBDOMAIN (GAWLER CRATON),quartz vein,Glenloth Granite
135.1162879,-31.0933063,workings?,LOST,Gold,Low Significance,CHRISTIE SUBDOMAIN (GAWLER CRATON),quartz vein,Glenloth Granite
138.7532615,-30.6969214,workings?,PEER MAHOMETS,"Copper, Silver, Gold",Low Significance,ADELAIDE GEOSYNCLINE,deep weathering,Bunyeroo Formation
138.8243175,-30.7161665,workings?,ANGEPENA TREASURE,Gold,Low Significance,ADELAIDE GEOSYNCLINE,quartz vein unit 4,Tapley Hill Formation
138.9727012,-34.7754675,,BENNETTS ALLUVIALS,Gold,Low Significance,,Holocene alluvial/fluvial unit 2,
138.9954492,-34.7877135,,BLUMBERG CENTRAL,Gold,Low Significance,KANMANTOO TROUGH (ADELAIDE GEOSYNCLINE),quartz vein unit 4,Kanmantoo Group
139.0491282,-34.5540975,,JOHNSONS ALLUVIALS,Gold,Low Significance,,Holocene alluvial/fluvial unit 2,
139.2301172,-34.5370615,workings,KEYNETON PROPRIETARY,"Lead, Silver, Gold",Low Significance,KANMANTOO TROUGH (ADELAIDE GEOSYNCLINE),quartz vein unit 4,Carrickalinga Head Formation
139.1375952,-34.2821925,,LEAKES PASS,Gold,Low Significance,ADELAIDE GEOSYNCLINE,Holocene alluvial/fluvial sediments,Wilyerpa Formation
138.9857182,-34.7803495,,ERICA,Gold,Low Significance,KANMANTOO TROUGH (ADELAIDE GEOSYNCLINE),quartz vein unit 4,Kanmantoo Group
138.9695212,-34.7895785,,ST PATRICK,"Ochre, Gold, Iron Ore",Low Significance,KANMANTOO TROUGH (ADELAIDE GEOSYNCLINE),Tertiary-Pleistocene regolith/colluvial sediments,Burra Group
136.8893697,-30.4403264,whenan shaft,OLYMPIC DAM,"Copper, Silver, Gold, Iron, Rare Earths, Uranium, Uranium Oxide",World-wide Significance,GAWLER CRATON,Olympic Dam Breccia Complex,Roxby Downs Granite
136.8893697,-30.4403264,whenan shaft,OLYMPIC DAM,"Copper, Silver, Gold, Iron, Rare Earths, Uranium, Uranium Oxide",World-wide Significance,GAWLER CRATON,,
136.8893697,-30.4403264,whenan shaft,OLYMPIC DAM,"Copper, Silver, Gold, Iron, Rare Earths, Uranium, Uranium Oxide",World-wide Significance,GAWLER CRATON,,
138.6786212,-34.9613535,track,WATERFALL GULLY,Gold,Low Significance,ADELAIDE GEOSYNCLINE,quartz vein unit 4,Saddleworth Formation
138.8236562,-34.6982485,shaft,LADY ALICE,"Gold, Copper",Locally Significant,ADELAIDE GEOSYNCLINE,quartz vein unit 4,Barossa Complex
138.8224942,-34.7009225,main shaft,LADY EDITH,"Copper, Gold",Low Significance,ADELAIDE GEOSYNCLINE,quartz vein unit 4,Barossa Complex
138.8225922,-34.6675945,,LADY PEARCE EXTENDED,Gold,Low Significance,ADELAIDE GEOSYNCLINE,quartz vein,Emeroo Subgroup
138.8214912,-34.6659065,open cut & tunnel,LADY PEARCE,Gold,Low Significance,ADELAIDE GEOSYNCLINE,quartz vein unit 4,Barossa Complex
138.8358972,-34.6636835,workings?,L'ESPERANCE REEF,Gold,Low Significance,ADELAIDE GEOSYNCLINE,quartz vein,Barossa Complex
138.8703402,-34.6054175,shallow scrape,LYNDOCH ALLUVIALS,Gold,Low Significance,TERTIARY PALAEOCHANNELS,Miocene-Pliocene unit 2,
138.8998172,-34.6352605,,LYNDOCH REEF,"Copper, Gold",Low Significance,ADELAIDE GEOSYNCLINE,quartz vein unit 4,Skillogalee Dolomite
135.108746,-31.0897103,,BROPHYS,Gold,Low Significance,CHRISTIE SUBDOMAIN (GAWLER CRATON),quartz vein,Glenloth Granite
135.08507,-31.0818443,,HILL VIEW,Gold,Low Significance,CHRISTIE SUBDOMAIN (GAWLER CRATON),quartz vein,Glenloth Granite
134.996599,-30.8660103,,PIONEER,Gold,Low Significance,WILGENA SUBDOMAIN (GAWLER CRATON),hydrothermal alteration,Archaean rocks
134.997022,-30.8666483,,PIONEER EAST,Gold,Low Significance,WILGENA SUBDOMAIN (GAWLER CRATON),quartz vein unit 1,Kenella Gneiss
134.998203,-30.8638583,,PERSEVERANCE,Gold,Low Significance,CHRISTIE SUBDOMAIN (GAWLER CRATON),quartz vein,Archaean rocks
135.096548,-31.0865193,,PORK,Gold,Low Significance,WILGENA SUBDOMAIN (GAWLER CRATON),quartz vein,Glenloth Granite
134.986382,-30.8688673,trench,PORT LINCOLN SYNDICATE,Gold,Low Significance,WILGENA SUBDOMAIN (GAWLER CRATON),quartz vein unit 4,Kenella Gneiss
135.090045,-31.1055353,,ROYAL TIGER,Gold,Low Significance,CHRISTIE SUBDOMAIN (GAWLER CRATON),quartz vein,Glenloth Granite
134.850982,-31.0466233,hole AR30,ARCOORDABY,Gold,Low Significance,CHRISTIE SUBDOMAIN (GAWLER CRATON),Mulgathing Complex,Archaean-Palaeoproterozoic rocks
133.5878602,-29.8782023,,CHALLENGER,"Gold, Silver",Significant to SA,CHRISTIE SUBDOMAIN (GAWLER CRATON),Christie Gneiss,Christie Gneiss
133.5927652,-29.8838663,near hole 05CRAB0005,CHALLENGER NO.2,Gold,Locally Significant,CHRISTIE SUBDOMAIN (GAWLER CRATON),pegmatite,Christie Gneiss
133.5973622,-29.8735383,near hole 05CRAB0054,CHALLENGER NO.3,Gold,Locally Significant,CHRISTIE SUBDOMAIN (GAWLER CRATON),quartz vein,Christie Gneiss
135.123458,-29.2987163,main pit,CAIRN HILL,"Iron, Gold, Copper",Significant to SA,MOUNT WOODS INLIER,Mount Woods Complex,Mount Woods Complex
133.7825402,-29.6202523,,CAMPFIRE BORE,Gold,Low Significance,CHRISTIE SUBDOMAIN (GAWLER CRATON),hydrothermal alteration,Christie Gneiss
134.99419,-30.8676083,open cut,IANS,Gold,Low Significance,CHRISTIE SUBDOMAIN (GAWLER CRATON),hydrothermal alteration,amphibolite
135.105963,-31.0954713,,IVANHOE,Gold,Low Significance,CHRISTIE SUBDOMAIN (GAWLER CRATON),quartz vein,Glenloth Granite
135.105564,-31.0880133,,JAY JAY,Gold,Low Significance,CHRISTIE SUBDOMAIN (GAWLER CRATON),quartz vein,Glenloth Granite
135.084969,-31.0792583,,KINGFISHER,Gold,Low Significance,CHRISTIE SUBDOMAIN (GAWLER CRATON),quartz vein,Glenloth Granite
134.943421,-30.8599143,scrape,KINGSMILL,Gold,Low Significance,GAWLER CRATON,Quaternary regolith/colluvial sediments,Quaternary calcrete
135.1147469,-31.1017443,shaft,LAKE VIEW,Gold,Low Significance,CHRISTIE SUBDOMAIN (GAWLER CRATON),quartz vein,Glenloth Granite
134.0255171,-29.5401553,near hole 99BIAR 17,BIRDIE,Gold,Low Significance,CHRISTIE SUBDOMAIN (GAWLER CRATON),hydrothermal alteration,Christie Gneiss
134.0256241,-29.5796293,near hole WRC 1,GOLF BORE NORTH,Gold,Low Significance,CHRISTIE SUBDOMAIN (GAWLER CRATON),hydrothermal alteration,Christie Gneiss
134.0641041,-29.5627053,near hole WRC 10,SKYE,"Gold, Silver",Low Significance,CHRISTIE SUBDOMAIN (GAWLER CRATON),hydrothermal alteration,Christie Gneiss
139.0063032,-34.3519705,workings,LACHYMOOR,"Copper, Gold",Low Significance,KANMANTOO TROUGH (ADELAIDE GEOSYNCLINE),quartz vein unit 4,Ulupa Siltstone
138.5168395,-30.4436694,area of dozer scrape,BOOLOOROO ALLUVIALS,Gold,Low Significance,ADELAIDE GEOSYNCLINE,Pleistocene regolith/colluvial unit 4,Curdimurka Subgroup
136.8893697,-30.4403264,whenan shaft,OLYMPIC DAM,"Copper, Silver, Gold, Iron, Rare Earths, Uranium, Uranium Oxide",World-wide Significance,GAWLER CRATON,,
138.6362902,-34.9864095,workings?,BROWNHILL CREEK ALLUVIALS,Gold,Low Significance,,Holocene alluvial/fluvial unit 2,
138.6753432,-34.9436665,qz blow,BURNSIDE NORTH,Gold,Low Significance,ADELAIDE GEOSYNCLINE,quartz vein unit 4,Burra Group
138.5452143,-34.9147375,inner bend of river,HINDMARSH ALLUVIALS,Gold,Low Significance,,Holocene alluvial/fluvial unit 2,
138.7392522,-34.9745785,qz float?,HUNTERS FIND,Gold,Low Significance,ADELAIDE GEOSYNCLINE,quartz vein unit 4,Burra Group
138.8347912,-34.6516735,disturbed ground,GODDARDS HILL,Gold,Low Significance,,Tertiary ferricrete,
138.8833952,-34.7159975,dump?,GOLDEN VICTORY,Gold,Low Significance,ADELAIDE GEOSYNCLINE,quartz vein unit 4,Stonyfell Quartzite
135.391986,-29.6699523,near hole DD89EN 60,MANXMAN A1,"Iron, Gold, Copper, Uranium",Locally Significant,MOUNT WOODS INLIER,hydrothermal alteration,Mount Woods Complex
138.6774792,-34.9508495,qz blow?,BURNSIDE SOUTH,Gold,Low Significance,ADELAIDE GEOSYNCLINE,quartz vein unit 4,Burra Group
138.8246122,-34.6625705,workings?,BAROSSA JUNCTION,Gold,Low Significance,ADELAIDE GEOSYNCLINE,quartz vein unit 4,Barossa Complex
138.8221172,-34.6561355,shallow workings,BAROSSA TREASURE,Gold,Low Significance,ADELAIDE GEOSYNCLINE,quartz vein unit 4,Emeroo Subgroup
138.9366272,-34.7318815,,BAYNES GULLY,Gold,Low Significance,,Holocene alluvial/fluvial unit 2,
138.8245752,-34.6589655,shaft 1,BELLE OF BAROSSA,Gold,Low Significance,ADELAIDE GEOSYNCLINE,quartz vein unit 4,Emeroo Subgroup
138.8496412,-34.7439865,small creek,BISMARK ALLUVIALS,Gold,Low Significance,TERTIARY PALAEOCHANNELS,Holocene alluvial/fluvial unit 2,
138.8335372,-34.6495775,creek near Goldfields Rd,GOLLOPS GULLY,Gold,Low Significance,,Holocene alluvial/fluvial unit 1,
138.8952202,-34.6952865,clearing,GORDON REWARD,"Ochre, Gold, Sapphire, Topaz",Low Significance,,hydrothermal alteration,Burra Group
138.8358889,-34.6481139,,GREAT BOULDER,Gold,Low Significance,ADELAIDE GEOSYNCLINE,quartz vein,Barossa Complex
138.8370482,-34.6572135,opposite dam on Green Gully Rd,GREEN HILL ALLUVIALS,Gold,Low Significance,TERTIARY PALAEOCHANNELS,Miocene-Pliocene unit 2,
138.8249202,-34.6971405,,HAMLIN,Gold,Low Significance,ADELAIDE GEOSYNCLINE,quartz vein unit 4,Barossa Complex
138.7221795,-34.9880494,,PICCADILLY,Gold,Low Significance,ADELAIDE GEOSYNCLINE,quartz vein unit 4,Woolshed Flat Shale
134.4017841,-29.7011293,near hole CM023C-A,COMET,Gold,Low Significance,CHRISTIE SUBDOMAIN (GAWLER CRATON),hydrothermal alteration,Christie Gneiss
134.995709,-30.8665593,,SUTHERLANDS,Gold,Low Significance,WILGENA SUBDOMAIN (GAWLER CRATON),hydrothermal alteration,Kenella Gneiss
134.813942,-31.2439693,near hole LRC 554,TOMAHAWK SOUTH,Gold,Low Significance,GAWLER RANGE VOLCANIC PROVINCE,hydrothermal alteration,Hiltaba Suite
134.775732,-31.2000623,near hole LRC 474,TUNKILLIA 191,Gold,Low Significance,GAWLER RANGE VOLCANIC PROVINCE,hydrothermal alteration,Hiltaba Suite
135.075385,-31.0790803,workings,DARLEYS,Gold,Low Significance,CHRISTIE SUBDOMAIN (GAWLER CRATON),quartz vein,Glenloth Granite
137.1764056,-33.1916814,near hole MBR159,DRACHMA,Gold,Low Significance,MOONTA SUBDOMAIN (GAWLER CRATON),hydrothermal alteration,Middleback Subgroup
139.2329903,-33.0032155,workings,ALTITUDE,Gold,Low Significance,ADELAIDE GEOSYNCLINE,quartz vein,Gumbowie Arkose
134.2733091,-30.6332903,,MIR,Gold,Low Significance,CHRISTIE SUBDOMAIN (GAWLER CRATON),hydrothermal alteration,Christie Gneiss
135.084956,-31.0832013,,MONARCH,Gold,Low Significance,CHRISTIE SUBDOMAIN (GAWLER CRATON),quartz vein unit 4,Glenloth Granite
134.76487,-31.2263593,near hole LED020,TUNKILLIA 223,"Gold, Silver",Significant to SA,GAWLER RANGE VOLCANIC PROVINCE,Tunkillia Suite,Tunkillia Suite
139.2057814,-31.5948005,dark o/c,MAMMOTH BLACK RIDGE,"Copper, Silver, Gold, Iron",Low Significance,ADELAIDE GEOSYNCLINE,Tertiary deep weathering,Sunderland Formation
133.4658122,-29.7351923,,INDOOROOPILLY BORE,Gold,Low Significance,CHRISTIE SUBDOMAIN (GAWLER CRATON),Christie Gneiss,Christie Gneiss
133.5822922,-30.1244763,,WOOMERA TANK,Gold,Low Significance,CHRISTIE SUBDOMAIN (GAWLER CRATON),Christie Gneiss,Christie Gneiss
138.7485142,-34.9589645,workings?,LADY EDITH,Gold,Low Significance,ADELAIDE GEOSYNCLINE,quartz vein unit 4,Basket Range Sandstone
138.7062365,-30.2998324,workings,NICHOLS NOB,"Copper, Silver, Gold",Low Significance,ADELAIDE GEOSYNCLINE,quartz vein unit 4,Tapley Hill Formation
138.6713475,-30.9389264,,MOSLEYS,"Copper, Gold, Cobalt",Low Significance,ADELAIDE GEOSYNCLINE,quartz vein unit 4,Curdimurka Subgroup
138.7090852,-34.8779125,creek bed,MALPAS,Gold,Low Significance,,Holocene alluvial/fluvial unit 1,
138.7172862,-34.8942805,creek bed,MARYBANK,Gold,Low Significance,,quartz vein unit 4,Burra Group
138.9961492,-34.7875075,disturbed ground,BRADFORD,"Kaolin, Gold",Low Significance,KANMANTOO TROUGH (ADELAIDE GEOSYNCLINE),Tertiary-Pleistocene regolith/colluvial sediments,Backstairs Passage Formation
138.9868502,-34.8193605,N boundary section 6343,DURDAN,Gold,Low Significance,KANMANTOO TROUGH (ADELAIDE GEOSYNCLINE),quartz vein,Backstairs Passage Formation
138.9723352,-34.7854755,,HINDMARSH,Gold,Low Significance,ADELAIDE GEOSYNCLINE,quartz vein unit 4,Saddleworth Formation
138.9755672,-34.7957325,,LITTLE CRUMB,Gold,Low Significance,ADELAIDE GEOSYNCLINE,quartz vein unit 4,Saddleworth Formation
138.9781282,-34.7882125,,LUCKY HIT NORTH,Gold,Low Significance,KANMANTOO TROUGH (ADELAIDE GEOSYNCLINE),quartz vein unit 4,Carrickalinga Head Formation
138.8210642,-34.6551255,,BUCKERFIELD,Gold,Low Significance,ADELAIDE GEOSYNCLINE,quartz vein unit 4,Barossa Complex
138.8354422,-34.6476285,head of dam,BULLOCKY GULLY,Gold,Low Significance,,Holocene alluvial/fluvial unit 2,
138.8295672,-34.6553675,hut,CAMP HILL,Gold,Low Significance,,Holocene alluvial/fluvial unit 2,
138.8959182,-34.7259065,trees,CLARKS DELORAINE,Gold,Low Significance,ADELAIDE GEOSYNCLINE,quartz vein unit 4,Burra Group
138.8401512,-34.6048865,tree in creek,COCKATOO VALLEY ALLUVIALS,Gold,Low Significance,,Holocene alluvial/fluvial unit 1,
138.8410012,-34.6415055,driveway entrance,COTTERS HILL,Gold,Low Significance,,Holocene alluvial/fluvial unit 2,
138.8303632,-34.6499715,,HATCHES HILL,Gold,Low Significance,,Miocene-Pliocene unit 2,
138.8269762,-34.6543295,old pit?,HISSEYS GULLY,Gold,Low Significance,,Miocene-Pliocene unit 2,
138.8223102,-34.6600245,shallow workings,HORSESHOE BEND,"Gold, Copper",Low Significance,ADELAIDE GEOSYNCLINE,quartz vein unit 4,Emeroo Subgroup
138.9573532,-34.5737715,creek bed,JACOBS CREEK ALLUVIALS,Gold,Low Significance,,Holocene alluvial/fluvial unit 2,
138.8315102,-34.6478285,dirt track turnaround,JONES HILL ALLUVIALS,Gold,Low Significance,,quartz vein unit 4,Barossa Complex
138.8340982,-34.6489565,pits?,KAPUNDA HILL,Gold,Low Significance,,Holocene alluvial/fluvial unit 2,
138.9286392,-34.7405775,on track following ck,KEROSENE GULLY,Gold,Low Significance,,Holocene alluvial/fluvial unit 1,
138.7219442,-34.8223505,creek junction,TEA TREE GULLY ALLUVIALS,"Gold, Clay",Low Significance,,Holocene alluvial/fluvial unit 1,
139.2292883,-33.0074775,working?,MARKEY CLAIM,Gold,Low Significance,ADELAIDE GEOSYNCLINE,quartz vein,Fortress Hill Formation
133.5820932,-29.6026673,ENRC05,ENDOR,"Copper, Gold",Low Significance,CHRISTIE SUBDOMAIN (GAWLER CRATON),hydrothermal alteration,Christie Gneiss
138.9240092,-34.7488385,track crosses ck,DEAD HORSE GULLY,Gold,Low Significance,,Holocene alluvial/fluvial unit 2,
138.8950962,-34.7388715,,DELORAINE KING,Gold,Low Significance,ADELAIDE GEOSYNCLINE,quartz vein unit 4,Burra Group
134.76487,-31.2263593,near hole LED020,TUNKILLIA 223,"Gold, Silver",Significant to SA,GAWLER RANGE VOLCANIC PROVINCE,,
134.76487,-31.2263593,near hole LED020,TUNKILLIA 223,"Gold, Silver",Significant to SA,GAWLER RANGE VOLCANIC PROVINCE,,
134.76487,-31.2263593,near hole LED020,TUNKILLIA 223,"Gold, Silver",Significant to SA,GAWLER RANGE VOLCANIC PROVINCE,,
135.068633,-31.0924113,,TWO MUGS,Gold,Low Significance,WILGENA SUBDOMAIN (GAWLER CRATON),quartz vein,Glenloth Granite
133.4279702,-30.2018923,,TYPHOON,Gold,Low Significance,CHRISTIE SUBDOMAIN (GAWLER CRATON),Mulgathing Complex,Mulgathing Complex
134.523878,-30.7102403,,TARCOOLA UNITED SOUTH,Gold,Low Significance,CHRISTIE SUBDOMAIN (GAWLER CRATON),quartz vein,Tarcoola Formation
138.7693132,-35.0976485,head of S-most dam,TENNANTS,Gold,Low Significance,,Holocene alluvial/fluvial sediments,
138.8946142,-35.0237565,fenced off area,THEOBALDS,"Gold, Silver",Low Significance,ADELAIDE GEOSYNCLINE,quartz vein,Mitcham Quartzite
138.8750462,-35.0002935,,UNITY,Gold,Low Significance,ADELAIDE GEOSYNCLINE,quartz vein unit 4,Barossa Complex
138.8195052,-34.6937745,disturbed ground?,YOUNG AUSTRALIAN NO.3,"Gold, Silver",Low Significance,ADELAIDE GEOSYNCLINE,quartz vein,Barossa Complex
138.9648022,-34.4339215,qz vein?,HEGGIES,Gold,Low Significance,ADELAIDE GEOSYNCLINE,deep weathering,Wilpena Group
139.0600363,-33.5549725,qz vein,GOLDEN GUINEA,Gold,Low Significance,ADELAIDE GEOSYNCLINE,quartz vein,Wildildie Sandstone Member
139.0680353,-33.5742045,portal of adit,GOLDEN HARP,Gold,Low Significance,ADELAIDE GEOSYNCLINE,quartz vein,Cox Sandstone Member
138.8517602,-34.6367375,pit?,NAPOLEON,Gold,Low Significance,,Tertiary rocks,
138.8219022,-34.6943765,,NEW YEARS EVE REEF,Gold,Low Significance,ADELAIDE GEOSYNCLINE,quartz vein unit 4,Barossa Complex
138.9088882,-34.5770535,top of river valley,NORTH PARA ALLUVIALS,Gold,Low Significance,TERTIARY PALAEOCHANNELS,Miocene-Pliocene unit 2,
138.8326132,-34.6515445,creek bed,NUGGETY GULLY,Gold,Low Significance,,Miocene-Pliocene unit 2,
138.8884172,-34.7331695,edge of trees,OVERSIGHT,Gold,Low Significance,ADELAIDE GEOSYNCLINE,quartz vein,Stonyfell Quartzite
139.0516283,-33.5447795,,ORINDA,Gold,Low Significance,ADELAIDE GEOSYNCLINE,quartz vein,Waukaringa Siltstone
139.0770613,-33.4911575,,PAR LAP,Gold,Low Significance,ADELAIDE GEOSYNCLINE,quartz vein,Ketchowla Siltstone
139.0708653,-33.6053145,adit,PINNAROO SYNDICATE,Gold,Low Significance,ADELAIDE GEOSYNCLINE,quartz vein,Tarcowie Siltstone
138.8972962,-34.7236915,,SHEOAK RIDGE,Gold,Low Significance,ADELAIDE GEOSYNCLINE,quartz vein unit 4,Stonyfell Quartzite
138.7823072,-34.7458845,trench,SHILLABEERS,Gold,Low Significance,ADELAIDE GEOSYNCLINE,quartz vein unit 4,Woolshed Flat Shale
138.8327662,-34.6561455,disturbed ground,SIMMONDS HILL,Gold,Low Significance,,Miocene-Pliocene unit 2,
138.8403282,-34.6366385,disturbed ground,SIMS RUSH,Gold,Low Significance,TERTIARY PALAEOCHANNELS,Holocene alluvial/fluvial unit 2,Emeroo Subgroup
138.9752862,-34.7781465,pit?,SMITHFIELD,Gold,Low Significance,ADELAIDE GEOSYNCLINE,quartz vein,Saddleworth Formation
138.8463722,-34.6813545,river bed,SOUTH PARA ALLUVIALS,Gold,Low Significance,,Holocene alluvial/fluvial unit 1,
138.9790263,-33.3312455,,SCRUBBERS CAMP,"Copper, Gold",Low Significance,ADELAIDE GEOSYNCLINE,quartz vein unit 3,Skillogalee Dolomite
139.1402532,-33.5460285,shaft?,SEATON AND GREGORY,Gold,Low Significance,,Pleistocene alluvial/fluvial sediments,
133.9105342,-29.8849613,RED 49,IBIS,"Iron, Gold",Low Significance,CHRISTIE SUBDOMAIN (GAWLER CRATON),Christie Gneiss,
139.0600363,-33.5568535,workings?,GOOD HOPE,Gold,Low Significance,ADELAIDE GEOSYNCLINE,quartz vein,Waukaringa Siltstone
139.1723742,-33.5200085,,GORDON AND FUSS,Gold,Low Significance,ADELAIDE GEOSYNCLINE,quartz vein,Waukaringa Siltstone
139.0660993,-33.5735705,,HANSEL MUNDY,Gold,Low Significance,ADELAIDE GEOSYNCLINE,quartz vein unit 4,Tarcowie Siltstone
138.2311934,-33.2292304,,HOWE ALLUVIALS,Gold,Low Significance,,Quaternary alluvial/fluvial sediments,
139.0698533,-33.5709325,,PRICES,Gold,Low Significance,ADELAIDE GEOSYNCLINE,quartz vein unit 4,Tarcowie Siltstone
139.0630013,-33.5659445,,REIDS,Gold,Low Significance,ADELAIDE GEOSYNCLINE,quartz vein unit 4,Tarcowie Siltstone
139.0683453,-33.5835155,portal Adit 12,RISING SUN,Gold,Low Significance,ADELAIDE GEOSYNCLINE,quartz vein unit 4,Tapley Hill Formation
139.0698233,-33.5093065,shaft,SHIPWAY AND EVANS,Gold,Low Significance,ADELAIDE GEOSYNCLINE,quartz vein,Pepuarta Tillite
139.1071553,-32.7919625,,STATTONS NACKARA,"Silver, Gold",Low Significance,ADELAIDE GEOSYNCLINE,quartz vein unit 4,Tapley Hill Formation
138.9006415,-30.1139204,,WALTERS WELL,"Copper, Gold",Low Significance,ADELAIDE GEOSYNCLINE,quartz vein unit 4,Amberoona Formation
138.5809245,-30.9887644,qz vein?,FERGUSSONS,Gold,Low Significance,ADELAIDE GEOSYNCLINE,quartz vein,Brachina Formation
138.7691492,-35.0834165,,BELLS HILL,Gold,Low Significance,,Tertiary rocks,
138.7712552,-35.0814285,,HOPES,Gold,Low Significance,ADELAIDE GEOSYNCLINE,quartz vein,Woolshed Flat Shale
138.7779832,-35.0844305,,HOUGHS,Gold,Low Significance,,Holocene alluvial/fluvial sediments,
138.7838242,-35.0761885,white clay patch,JACKMANS,Gold,Low Significance,ADELAIDE GEOSYNCLINE,quartz vein unit 4,Woolshed Flat Shale
138.9431345,-30.1063835,prospecting pit,NEVADA,"Copper, Gold",Low Significance,ADELAIDE GEOSYNCLINE,Amberoona Formation,Amberoona Formation
138.9044602,-35.0544435,disturbed ground?,MOUNT BARKER AREA,"Gold, Copper",Low Significance,ADELAIDE GEOSYNCLINE,deep weathering,Tapley Hill Formation
138.7877082,-35.0379455,qz float,VICTOR GEORGE,Gold,Low Significance,ADELAIDE GEOSYNCLINE,quartz vein unit 4,Emeroo Subgroup
138.7862352,-35.0391615,near fence,VICTORIA REEF,Gold,Low Significance,ADELAIDE GEOSYNCLINE,quartz vein unit 4,Emeroo Subgroup
138.7683692,-35.0558015,old pit?,WARRAKILLA SOUTH EXTENDED,Gold,Low Significance,ADELAIDE GEOSYNCLINE,quartz vein,Woolshed Flat Shale
138.7698542,-35.0576325,workings in trees?,WARRAKILLA  SOUTH,Gold,Low Significance,ADELAIDE GEOSYNCLINE,quartz vein unit 4,Woolshed Flat Shale
138.7762612,-35.0569515,2 trees,WARRAKILLA BOULDER,Gold,Low Significance,ADELAIDE GEOSYNCLINE,quartz vein,Woolshed Flat Shale
138.7731002,-35.0592245,shrub,WARRAKILLA BROKEN HILL,Gold,Low Significance,ADELAIDE GEOSYNCLINE,quartz vein,Woolshed Flat Shale
138.7726142,-35.0551415,disturbed ground,WARRAKILLA,"Gold, Bismuth",Low Significance,ADELAIDE GEOSYNCLINE,quartz vein unit 4,Woolshed Flat Shale
138.7733272,-35.0549015,disturbed ground,WARRAKILLA NORTH,"Gold, Bismuth",Low Significance,ADELAIDE GEOSYNCLINE,quartz vein unit 4,Woolshed Flat Shale
138.7756362,-35.0829895,,BIG BEN,"Gold, Bismuth",Low Significance,KANMANTOO TROUGH (ADELAIDE GEOSYNCLINE),quartz vein,Woolshed Flat Shale
138.7552492,-35.0683395,river bank,BLACKSAND CORNER,Gold,Low Significance,,Holocene alluvial/fluvial unit 1,
138.7836612,-35.0785575,tree,BREAK OF DAY,Gold,Low Significance,ADELAIDE GEOSYNCLINE,quartz vein,Woolshed Flat Shale
138.8031512,-35.0424635,tree,BREMERS,Gold,Low Significance,ADELAIDE GEOSYNCLINE,quartz vein,Woolshed Flat Shale
138.8774082,-35.1084255,erosion at top of gully,BUGLE RANGES,"Silver, Gold",Low Significance,ADELAIDE GEOSYNCLINE,quartz vein,Umberatana Group
138.8753632,-35.0011075,,CARR AND DOHERTY,Gold,Low Significance,ADELAIDE GEOSYNCLINE,quartz vein,
138.7700102,-35.0812415,Chapel Hill,CHAPEL HILL ALLUVIALS,Gold,Low Significance,TERTIARY PALAEOCHANNELS,Holocene alluvial/fluvial unit 2,
138.7734302,-35.0827425,,CHAPMANS GULLY ALLUVIALS,Gold,Locally Significant,TERTIARY PALAEOCHANNELS,Holocene alluvial/fluvial unit 1,
138.7733052,-35.0837555,,CHAPMANS GULLY,Gold,Low Significance,ADELAIDE GEOSYNCLINE,quartz vein,Woolshed Flat Shale
138.7671152,-35.0826155,,CHRISTMAS RUSH,Gold,Low Significance,,Quaternary rocks,
138.7767682,-35.0492845,qz float?,JOHN BULL,Gold,Low Significance,ADELAIDE GEOSYNCLINE,quartz vein unit 4,Woolshed Flat Shale
138.8778222,-34.9992575,spoils?,JOHNSTONS FREEHOLD,Gold,Low Significance,,Tertiary-Pleistocene rocks,Barossa Complex
138.7946682,-35.0522265,qz reef?,KANGAROO,Gold,Low Significance,ADELAIDE GEOSYNCLINE,quartz vein unit 4,Woolshed Flat Shale
138.7854952,-35.0406375,fenceline,KEKWICKS REEF,Gold,Low Significance,ADELAIDE GEOSYNCLINE,quartz vein unit 4,Emeroo Subgroup
138.7860232,-35.0353905,workings?,KING EDWARD VII,Gold,Low Significance,ADELAIDE GEOSYNCLINE,quartz vein,Woolshed Flat Shale
138.7762452,-35.0928175,heap,KING,Gold,Low Significance,ADELAIDE GEOSYNCLINE,quartz vein unit 4,Woolshed Flat Shale
138.7840072,-35.0816015,disturbed ground?,LAWRENCES REEF,Gold,Low Significance,ADELAIDE GEOSYNCLINE,quartz vein unit 4,Woolshed Flat Shale
138.7817652,-35.0764775,large dam,LITTLE BENDIGO GULLY,Gold,Low Significance,,Holocene alluvial/fluvial unit 2,
138.8219639,-34.6746028,,PARA WIRRA PROSPECTING,Gold,Low Significance,,,
138.7905142,-35.0558465,old pit,MOUNT PANGAEUS,Gold,Low Significance,ADELAIDE GEOSYNCLINE,quartz vein unit 4,Emeroo Subgroup
138.8214552,-35.0095275,old diggings?,MOUNT VENTURE,Gold,Low Significance,ADELAIDE GEOSYNCLINE,quartz vein unit 4,Emeroo Subgroup
138.7533662,-35.0588755,large dam,MYLOR,Gold,Low Significance,TERTIARY PALAEOCHANNELS,Holocene alluvial/fluvial unit 1,
138.8959262,-35.0238695,white dumps?,NAIRNE CONSOLS,Gold,Low Significance,ADELAIDE GEOSYNCLINE,quartz vein,Belair Subgroup
138.8680522,-34.9999885,,NEW ECLIPSE,Gold,Low Significance,ADELAIDE GEOSYNCLINE,quartz vein unit 4,Barossa Complex
138.9378932,-34.7396575,,SPECK GULLY,Gold,Low Significance,,Miocene-Pliocene unit 2,
138.8331662,-34.6470465,dam,SPIKE GULLY,Gold,Low Significance,,Miocene-Pliocene unit 2,
133.5483112,-29.8903863,,ATLANTIS,Gold,Low Significance,CHRISTIE SUBDOMAIN (GAWLER CRATON),Mulgathing Complex,Mulgathing Complex
134.810232,-31.6142803,,BIMBA,Gold,Low Significance,GAWLER CRATON,hydrothermal alteration,Hiltaba Suite
135.17077,-30.7246263,OUTCROP,BIG TANK,"Iron, Gold",Low Significance,GAWLER CRATON,Wilgena Hill Jaspilite,Palaeoproterozoic rocks
139.2335533,-33.0029385,workings,MOUNT AVONDALE,Gold,Low Significance,ADELAIDE GEOSYNCLINE,quartz vein,Fortress Hill Formation
138.8347852,-34.6549445,,RED HILL ALLUVIALS,Gold,Low Significance,TERTIARY PALAEOCHANNELS,Holocene alluvial/fluvial unit 1,
138.9435842,-34.5668695,,ROWLANDS FLAT,Gold,Low Significance,,Holocene alluvial/fluvial unit 2,
138.8403492,-34.6603365,cleared area,BAROSSA SAILORS GULLY,Gold,Low Significance,,Holocene alluvial/fluvial unit 2,
138.9329882,-34.7252695,,SAILORS GULLY,Gold,Low Significance,,Miocene-Pliocene unit 2,
138.8498152,-34.5598885,diggings?,SANDY CREEK ALLUVIALS,Gold,Low Significance,TERTIARY PALAEOCHANNELS,Tertiary rocks,
138.9450072,-34.7351845,,TALC GULLY,Gold,Low Significance,,Holocene alluvial/fluvial unit 2,
138.8236092,-34.6966965,shaft,TRY AGAIN,"Gold, Copper",Low Significance,ADELAIDE GEOSYNCLINE,quartz vein unit 4,Barossa Complex
138.8324412,-34.6538455,creek bed,TWO SPECK GULLY,Gold,Low Significance,,Miocene-Pliocene unit 2,
139.0700103,-33.5977265,portal Adit B2,TAKATI,Gold,Locally Significant,ADELAIDE GEOSYNCLINE,quartz vein unit 1,Tarcowie Siltstone
139.0702643,-33.6018335,portal adit A1,THREADGOLDS,Gold,Low Significance,ADELAIDE GEOSYNCLINE,quartz vein unit 4,Tarcowie Siltstone
138.9804993,-33.3528705,pit,TIVERS POINT,Gold,Low Significance,,Tertiary-Pleistocene alluvial/fluvial sediments,
138.8218902,-34.6485585,workings?,BAND OF HOPE,Gold,Low Significance,ADELAIDE GEOSYNCLINE,quartz vein unit 4,Barossa Complex
138.833575,-34.6505861,,BAROSSA BOULDER,Gold,Low Significance,,,
134.560688,-30.6993613,,SCHOOL,Gold,Low Significance,GAWLER CRATON,quartz vein,Tarcoola Formation
135.082158,-31.1046293,,SEARCHLIGHT,Gold,Low Significance,WILGENA SUBDOMAIN (GAWLER CRATON),quartz vein,Glenloth Granite
134.779563,-31.6947723,near hole  NHAC 27,SHEOAK,"Gold, Silver",Low Significance,GAWLER RANGE VOLCANIC PROVINCE,hydrothermal alteration,Hiltaba Suite
135.07127,-31.1163793,pit?,SIR EDMOND,Gold,Low Significance,WILGENA SUBDOMAIN (GAWLER CRATON),quartz vein,Glenloth Granite
139.0654513,-33.5729945,,KING FRANCIS,Gold,Low Significance,ADELAIDE GEOSYNCLINE,quartz vein,Tarcowie Siltstone
139.0611403,-33.5799855,portal Adit 6,LEWIS CLAIM,Gold,Low Significance,,Quaternary alluvial/fluvial sediments,
138.5847123,-33.7939155,qz blow,LLOYDS,"Gold, Silver",Low Significance,ADELAIDE GEOSYNCLINE,quartz vein,Anama Siltstone Member
139.0484113,-33.5550215,workings,ROSEWALLS,Gold,Low Significance,ADELAIDE GEOSYNCLINE,quartz vein unit 4,Fortress Hill Formation
139.0650113,-33.5720545,,SALTER AND HOGANS,Gold,Low Significance,ADELAIDE GEOSYNCLINE,quartz vein unit 4,Tarcowie Siltstone
139.0685153,-33.5720215,,SALTERS,Gold,Low Significance,ADELAIDE GEOSYNCLINE,quartz vein unit 4,Tarcowie Siltstone
138.6620885,-30.3102534,,MOUNT OGILVIE,"Gold, Nickel",Low Significance,ADELAIDE GEOSYNCLINE,quartz vein,Tapley Hill Formation
138.6191063,-33.9825705,workings?,WATERVALE SYNDICATE,Gold,Low Significance,ADELAIDE GEOSYNCLINE,quartz vein unit 4,Watervale Sandstone Member
138.9827333,-33.3375315,central pit,WHITES ULOOLOO,Gold,Low Significance,TERTIARY PALAEOCHANNELS,Holocene alluvial/fluvial unit 2,Skillogalee Dolomite unit 6
138.8222252,-35.0424465,qz o/c,WATERLOO,Gold,Low Significance,ADELAIDE GEOSYNCLINE,quartz vein,Stonyfell Quartzite
138.7718932,-35.0773325,,WATTLE FLAT,Gold,Low Significance,,Holocene alluvial/fluvial unit 1,
138.8709272,-35.0026565,,WHITE GUM,Gold,Low Significance,ADELAIDE GEOSYNCLINE,quartz vein,Barossa Complex
138.7758542,-35.0425975,dam,WHITEMANS GULLY,Gold,Low Significance,,Quaternary rocks,
139.2355083,-33.0015225,workings,ALTIMETER,Gold,Low Significance,ADELAIDE GEOSYNCLINE,quartz vein,Gumbowie Arkose
139.0726913,-33.6249555,open cut,ANDERSONS REWARD,Gold,Low Significance,ADELAIDE GEOSYNCLINE,quartz vein,Tarcowie Siltstone
138.7874472,-35.0354165,workings?,LUCKY 7,Gold,Low Significance,ADELAIDE GEOSYNCLINE,quartz vein,Woolshed Flat Shale
138.7635462,-35.0857095,,NEW RUSH,"Gold, Diamond",Low Significance,,Tertiary rocks,
138.7716522,-35.0859975,,NON PAREIL EXTENDED,Gold,Low Significance,ADELAIDE GEOSYNCLINE,quartz vein unit 4,Emeroo Subgroup
138.7712202,-35.0854615,,NON PAREIL,Gold,Low Significance,ADELAIDE GEOSYNCLINE,quartz vein unit 4,Emeroo Subgroup
138.7773222,-35.0919035,creek,KING NORTH,Gold,Low Significance,ADELAIDE GEOSYNCLINE,quartz vein unit 4,Woolshed Flat Shale
138.8951062,-35.0216465,old pit,NAIRNE NORTH,Gold,Low Significance,ADELAIDE GEOSYNCLINE,quartz vein unit 4,Belair Subgroup
138.7781572,-35.0667995,creek,OSULLIVANS ALLUVIALS,Gold,Low Significance,TERTIARY PALAEOCHANNELS,Holocene alluvial/fluvial sediments,
133.9210591,-29.9186333,near hole BD044C,BIRTHDAY,Gold,Low Significance,CHRISTIE SUBDOMAIN (GAWLER CRATON),hydrothermal alteration,Christie Gneiss
133.5511592,-30.2662463,,BLACK KNIGHT,Gold,Low Significance,CHRISTIE SUBDOMAIN (GAWLER CRATON),hydrothermal alteration,Christie Gneiss
135.090473,-31.0853293,,BLUE PETER,Gold,Low Significance,CHRISTIE SUBDOMAIN (GAWLER CRATON),quartz vein,Glenloth Granite
138.8381492,-34.6463235,cleared patch in treed area,AFGHAN HILL,Gold,Low Significance,,Miocene-Pliocene unit 2,
138.8263952,-34.7041455,,ALADDIN,Gold,Low Significance,ADELAIDE GEOSYNCLINE,quartz vein unit 4,Barossa Complex
138.8379092,-34.6534415,creek bed,AUBURN HILL,Gold,Low Significance,ADELAIDE GEOSYNCLINE,Miocene-Pliocene unit 2,
138.8834302,-34.6738955,shrub,AULD AND TOUT,Gold,Low Significance,ADELAIDE GEOSYNCLINE,quartz vein unit 4,Burra Group
138.7850192,-35.0436635,trees,SUNNY SOUTH,Gold,Low Significance,ADELAIDE GEOSYNCLINE,quartz vein unit 4,Woolshed Flat Shale
138.7728372,-35.0569435,pit?,DAYS CLAIM,Gold,Low Significance,ADELAIDE GEOSYNCLINE,quartz vein unit 4,Woolshed Flat Shale
138.7814572,-35.0745225,small heap,DIAMOND GULLY,Gold,Low Significance,,Holocene alluvial/fluvial sediments,
138.7699172,-35.0541865,,DONKEY GULLY ALLUVIALS,Gold,Low Significance,TERTIARY PALAEOCHANNELS,Holocene alluvial/fluvial sediments,
138.7936832,-35.0888095,shed,ECHUNGA GOVERNMENT,Gold,Low Significance,,Holocene alluvial/fluvial unit 2,
138.7749062,-35.0819905,,LADY JERVOIS,Gold,Low Significance,ADELAIDE GEOSYNCLINE,quartz vein unit 4,Emeroo Subgroup
138.7927372,-35.0302845,disturbed ground,MAY QUEEN,Gold,Low Significance,ADELAIDE GEOSYNCLINE,quartz vein,Emeroo Subgroup
138.7684462,-35.0610315,tree,MCKIES GOLDEN RISE,Gold,Low Significance,ADELAIDE GEOSYNCLINE,quartz vein,Emeroo Subgroup
138.7750232,-35.0826975,,MCLARTYS LEADER,"Gold, Bismuth",Low Significance,ADELAIDE GEOSYNCLINE,quartz vein unit 4,Woolshed Flat Shale
138.7697932,-35.0522665,tree,MCLEODS,Gold,Low Significance,ADELAIDE GEOSYNCLINE,quartz vein,Woolshed Flat Shale
138.7930352,-35.0599495,pit?,MIZPAH,Gold,Low Significance,ADELAIDE GEOSYNCLINE,quartz vein unit 4,Woolshed Flat Shale
138.7640632,-35.0830555,adit,POOR MANS HILL,"Gold, Diamond",Low Significance,,Tertiary-Pleistocene rocks,Tertiary rocks
138.7616382,-35.0654135,creek below dam wall,PRICES ALLUVIALS,Gold,Low Significance,,Holocene alluvial/fluvial unit 1,
138.8269762,-34.6543295,coords for Hisseys Gully,VICTORIA HILL,Gold,Low Significance,TERTIARY PALAEOCHANNELS,Miocene-Pliocene unit 2,
138.8205202,-34.6604705,pit,VICTORIA REEF,Gold,Low Significance,ADELAIDE GEOSYNCLINE,quartz vein unit 4,Barossa Complex
138.8883132,-34.7265415,,OLD VICTORY,Gold,Low Significance,ADELAIDE GEOSYNCLINE,quartz vein unit 4,Stonyfell Quartzite
138.8235642,-34.6580465,,WALKERVILLE GULLY,Gold,Low Significance,,Miocene-Pliocene unit 2,
138.8285952,-34.6529155,old diggings,WASH HILL,Gold,Low Significance,,Miocene-Pliocene unit 2,
135.1332639,-31.0857373,,SOUTHERN CROSS,Gold,Low Significance,WILGENA SUBDOMAIN (GAWLER CRATON),quartz vein,Glenloth Granite
135.109916,-31.1047893,,SPECIMEN FLAT,Gold,Low Significance,WILGENA SUBDOMAIN (GAWLER CRATON),quartz vein unit 4,Glenloth Granite
139.4131214,-30.2862285,working?,EDWARDS FIND,"Copper, Gold",Low Significance,ADELAIDE GEOSYNCLINE,quartz vein,Wooltana Volcanics
139.3789874,-30.3388615,qz float,LIVELYS FIND SOUTH,Gold,Low Significance,ADELAIDE GEOSYNCLINE,quartz vein,Tapley Hill Formation
139.0730153,-33.5886205,spoils,MONGOLATA ALLUVIALS,Gold,Low Significance,,Holocene alluvial/fluvial unit 1,
138.7595062,-35.0551875,creek,YORKEYS RUN,Gold,Low Significance,,quartz vein,
138.8194922,-34.6601635,,BAROSSA WEST,Gold,Low Significance,ADELAIDE GEOSYNCLINE,quartz vein unit 4,Emeroo Subgroup
138.8247252,-34.6586255,shaft 2,WHEAL FRANCIS,Gold,Low Significance,ADELAIDE GEOSYNCLINE,quartz vein unit 4,Emeroo Subgroup
138.8217872,-34.6530235,,WHEAL PARA,"Gold, Copper",Low Significance,ADELAIDE GEOSYNCLINE,quartz vein unit 4,Emeroo Subgroup
138.8312112,-34.6592735,white clay patch,WHITE LEAD,Gold,Low Significance,,Miocene-Pliocene unit 2,
139.0689303,-33.5920465,portal to adit A9,WILDILDIE,Gold,Low Significance,ADELAIDE GEOSYNCLINE,quartz vein unit 4,Cox Sandstone Member
139.0745873,-33.5229605,shaft?,G. WILLIAMS,Gold,Low Significance,ADELAIDE GEOSYNCLINE,quartz vein unit 4,Ketchowla Siltstone
139.0659853,-33.5740325,workings,WILTSHIRES,Gold,Low Significance,ADELAIDE GEOSYNCLINE,quartz vein,Tarcowie Siltstone
138.9805393,-33.3418245,trench on qz vein,COGLINS CREEK,Gold,Low Significance,TERTIARY PALAEOCHANNELS,Holocene alluvial/fluvial unit 1,
139.0604863,-33.5271585,pit,CUNNINGHAM AND BAILLIE,Gold,Low Significance,ADELAIDE GEOSYNCLINE,quartz vein,Waukaringa Siltstone
139.0495853,-33.5488975,workings?,DONOVAN AND WILLS,Gold,Low Significance,ADELAIDE GEOSYNCLINE,quartz vein unit 4,Tarcowie Siltstone
139.0677363,-33.4854655,,THE DUFFER,Gold,Low Significance,ADELAIDE GEOSYNCLINE,quartz vein,Tarcowie Siltstone
139.0657303,-33.5796555,trench,MONGOLATA BLOCK 8,Gold,Low Significance,ADELAIDE GEOSYNCLINE,quartz vein unit 4,Cox Sandstone Member
139.0690533,-33.5887645,portal adit Central 2,MONGOLATA CENTRAL,Gold,Low Significance,ADELAIDE GEOSYNCLINE,quartz vein unit 4,Cox Sandstone Member
139.0666873,-33.5740375,adit,MONGOLATA 3,Gold,Low Significance,ADELAIDE GEOSYNCLINE,quartz vein unit 4,Cox Sandstone Member
139.0659523,-33.5743125,,MONGOLATA NORTH,Gold,Low Significance,ADELAIDE GEOSYNCLINE,quartz vein unit 4,Tarcowie Siltstone
139.0702933,-33.6010045,portal adit A3,MONGOLATA SOUTH,Gold,Low Significance,ADELAIDE GEOSYNCLINE,quartz vein unit 4,Tarcowie Siltstone
139.0605973,-33.5223725,workings,MOORES,Gold,Low Significance,KANMANTOO TROUGH (ADELAIDE GEOSYNCLINE),quartz vein unit 4,Waukaringa Siltstone
139.1393522,-33.5425185,pit,MORRISONS,"Gold, Silver",Low Significance,ADELAIDE GEOSYNCLINE,quartz vein unit 3,Watervale Sandstone Member
139.0877343,-33.4682835,workings?,BRONZE WING,Gold,Low Significance,ADELAIDE GEOSYNCLINE,quartz vein,Ketchowla Siltstone
138.7126693,-33.4302535,old pit?,WORUBIA,"Gold, Copper",Low Significance,ADELAIDE GEOSYNCLINE,quartz vein unit 4,Wilyerpa Formation
139.0698913,-33.6030895,adit,BURRA MONGOLATA,Gold,Low Significance,ADELAIDE GEOSYNCLINE,quartz vein,Tarcowie Siltstone
138.8452365,-30.7450035,workings?,CHRISTMAS,Gold,Low Significance,ADELAIDE GEOSYNCLINE,quartz vein,Tapley Hill Formation
138.7887332,-35.0400635,adjacent to qz float,FARRANTS,Gold,Low Significance,ADELAIDE GEOSYNCLINE,Holocene alluvial/fluvial sediments,Emeroo Subgroup
138.7608992,-35.0831085,,CHAPEL HILL,Gold,Low Significance,ADELAIDE GEOSYNCLINE,quartz vein unit 4,Emeroo Subgroup
138.7762122,-35.1222535,,QUEEN,Gold,Low Significance,ADELAIDE GEOSYNCLINE,quartz vein unit 4,Stonyfell Quartzite
138.7880762,-35.0567935,workings?,RELIANCE,Gold,Low Significance,ADELAIDE GEOSYNCLINE,quartz vein unit 4,Emeroo Subgroup
138.7857672,-35.0398025,centre treed paddock,RODERTS,Gold,Low Significance,ADELAIDE GEOSYNCLINE,quartz vein unit 4,Emeroo Subgroup
138.7786102,-35.1065635,trees,ROYAL GOLD,Gold,Low Significance,ADELAIDE GEOSYNCLINE,quartz vein unit 4,Woolshed Flat Shale
140.4520172,-31.4277585,near NPRC05,NORTH PORTIA,"Copper, Gold, Cobalt, Molybdenum",Significant to SA,BENAGERIE RIDGE (CURNAMONA PROVINCE),Portia Formation,Portia Formation
140.4516572,-31.4350535,kink in base line,PORTIA,Gold,Significant to SA,CURNAMONA CRATON (CURNAMONA PROVINCE),Eyre Formation,Portia Formation
138.7679712,-35.0842505,,GERMAN DAM,Gold,Low Significance,,Tertiary-Pleistocene alluvial/fluvial sediments,
138.7857482,-35.0496295,old heap,GOLDEN CROWN,Gold,Low Significance,ADELAIDE GEOSYNCLINE,quartz vein unit 4,Woolshed Flat Shale
138.7671092,-35.0861145,,GOLDEN REEF,Gold,Low Significance,ADELAIDE GEOSYNCLINE,quartz vein unit 4,Emeroo Subgroup
138.7694362,-35.0569035,workings in trees?,GOLDEN RISE,Gold,Low Significance,ADELAIDE GEOSYNCLINE,quartz vein,Woolshed Flat Shale
138.7702512,-35.0591715,trees,GOLDEN RISE SOUTH,Gold,Low Significance,ADELAIDE GEOSYNCLINE,quartz vein,Woolshed Flat Shale
138.7603362,-35.0530715,road verge,GOLDEN RISE WEST,Gold,Low Significance,ADELAIDE GEOSYNCLINE,quartz vein unit 4,Skillogalee Dolomite
138.7619242,-35.0912505,,GOOSE EGG GULLY,Gold,Low Significance,ADELAIDE GEOSYNCLINE,quartz vein,Emeroo Subgroup
137.7514496,-29.8124414,pit?,RISCHBIETH WELL,Gold,Low Significance,ADELAIDE GEOSYNCLINE,quartz vein unit 4,Skillogalee Dolomite
138.7550592,-35.0574495,qz float,BIGGS FLAT NORTH,Gold,Low Significance,ADELAIDE GEOSYNCLINE,quartz vein unit 4,Emeroo Subgroup
138.7851412,-35.0381165,near dam,SAILORS GULLY,Gold,Low Significance,,Holocene alluvial/fluvial sediments,
138.7815462,-35.0428815,dam,SAWMILL GULLY,Gold,Low Significance,,Holocene alluvial/fluvial unit 1,
138.7860142,-35.0682055,qz blow?,LIEBELT,Gold,Low Significance,ADELAIDE GEOSYNCLINE,quartz vein unit 4,Burra Group
138.8949832,-34.6507445,creek,WILLIAMSTOWN ALLUVIALS,Gold,Low Significance,,Quaternary alluvial/fluvial sediments,
138.6911103,-34.1888775,disturbed ground?,BRILLIANT,"Gold, Silver, Lead",Low Significance,ADELAIDE GEOSYNCLINE,ironstone,Emeroo Subgroup
139.0670203,-33.5772095,portal adit 4,EASTVIEW,Gold,Low Significance,ADELAIDE GEOSYNCLINE,quartz vein,Tarcowie Siltstone
139.2310873,-33.0031735,workings?,RICHARDSON,Gold,Low Significance,ADELAIDE GEOSYNCLINE,quartz vein,Fortress Hill Formation
139.0683023,-33.5299705,pit?,MOUNT BLANCHE,Gold,Low Significance,ADELAIDE GEOSYNCLINE,quartz vein unit 4,Waukaringa Siltstone
135.076176,-31.0846293,disturbed ground,BRENNANS,Gold,Low Significance,CHRISTIE SUBDOMAIN (GAWLER CRATON),quartz vein,Glenloth Granite
139.0677373,-33.5808005,portal to main adit,BYLES,Gold,Locally Significant,ADELAIDE GEOSYNCLINE,quartz vein unit 1,Cox Sandstone Member
138.8459482,-34.6421345,creek,YATTA CREEK,Gold,Low Significance,,Quaternary alluvial/fluvial sediments,
138.8408942,-34.6393395,scrape,YATTA HILL,Gold,Low Significance,,Miocene-Pliocene unit 2,
138.8527642,-34.6606005,tributary in barossa res,YETTIE CREEK DIGGINGS,Gold,Low Significance,,Miocene-Pliocene unit 2,
138.8204572,-34.6945305,open cut,YOUNG AUSTRALIAN NO.1,Gold,Low Significance,ADELAIDE GEOSYNCLINE,quartz vein,Barossa Complex
138.8214002,-34.6931045,,YOUNG AUSTRALIAN NO.2,Gold,Low Significance,ADELAIDE GEOSYNCLINE,quartz vein,Barossa Complex
138.2350533,-35.5174805,abandoned trench?,GRUNDY,"Gold, Bismuth",Low Significance,ADELAIDE GEOSYNCLINE,quartz vein unit 4,Tapley Hill Formation
139.1660102,-33.5128665,,FUSS,Gold,Low Significance,ADELAIDE GEOSYNCLINE,quartz vein,Appila Tillite
139.1012342,-33.5841875,trench 200m NW of dam,GARRARD,Gold,Low Significance,,Holocene alluvial/fluvial unit 1,
139.0589813,-33.5585525,workings,GOLDEN EAGLE,Gold,Low Significance,ADELAIDE GEOSYNCLINE,quartz vein unit 4,Tarcowie Siltstone
139.0599003,-33.5324225,workings?,MOUNT EDITH,Gold,Low Significance,ADELAIDE GEOSYNCLINE,quartz vein unit 4,Waukaringa Siltstone
139.0759463,-33.5240965,adit,NEW ENTERPRISE,Gold,Low Significance,ADELAIDE GEOSYNCLINE,quartz vein,Grampus Quartzite
139.0572593,-33.4935095,creek bed,NEWICKE CREEK,Gold,Low Significance,,Holocene alluvial/fluvial unit 1,
138.9784263,-33.3565785,pit,NOLTENIUS CREEK,Gold,Low Significance,,Holocene alluvial/fluvial unit 1,
139.0860653,-33.5600015,,NORTH STAR,Gold,Low Significance,ADELAIDE GEOSYNCLINE,quartz vein,Grampus Quartzite
139.2050223,-33.0511825,,ONLY A DREAM,Gold,Low Significance,ADELAIDE GEOSYNCLINE,quartz vein,Waukaringa Siltstone
139.0668353,-33.5758545,portal Adit 2,CALLER BRAE,Gold,Low Significance,ADELAIDE GEOSYNCLINE,quartz vein,Tarcowie Siltstone
138.7141243,-33.4150215,workings?,CANNY AND DOHERTY,"Copper, Gold",Low Significance,ADELAIDE GEOSYNCLINE,quartz vein unit 4,Wilyerpa Formation
139.2413152,-33.6523585,2 shafts,CHALK CLIFFS,"Gold, Clay",Low Significance,ADELAIDE GEOSYNCLINE,quartz vein unit 4,Tapley Hill Formation
138.6244745,-30.1394004,,LORNA DOONE,"Copper, Gold",Locally Significant,ADELAIDE GEOSYNCLINE,quartz vein,Tindelpina Member
138.7962082,-35.0010035,,GRUNTHAL,"Copper, Gold",Low Significance,ADELAIDE GEOSYNCLINE,quartz vein unit 4,Emeroo Subgroup
138.7585272,-35.0514465,river verge,HACKS BRIDGE,Gold,Low Significance,,Holocene alluvial/fluvial unit 1,
138.7623472,-35.0836375,old dam?,HAHNDORF ALLUVIALS,Gold,Low Significance,TERTIARY PALAEOCHANNELS,Tertiary-Pleistocene rocks,
138.7732772,-35.0855685,,ECHUNGA SOUTH,Gold,Low Significance,ADELAIDE GEOSYNCLINE,quartz vein,Emeroo Subgroup
138.7749032,-35.1214765,driveway,QUEEN SOUTH,Gold,Low Significance,ADELAIDE GEOSYNCLINE,quartz vein unit 4,Stonyfell Quartzite
138.7855582,-35.0579325,,TAMBAROORA SW,Gold,Low Significance,ADELAIDE GEOSYNCLINE,quartz vein,Emeroo Subgroup
138.7542592,-35.0906095,dam,SOVEREIGN,Gold,Low Significance,ADELAIDE GEOSYNCLINE,quartz vein,Emeroo Subgroup
138.7531612,-35.1042515,roadside,STEELS GULLY,Gold,Low Significance,,Holocene alluvial/fluvial sediments,
138.7970442,-35.0470795,tree,SWEET BRIAR,Gold,Low Significance,ADELAIDE GEOSYNCLINE,quartz vein,Woolshed Flat Shale
138.8664282,-34.9992385,,BANKSIA,Gold,Low Significance,ADELAIDE GEOSYNCLINE,quartz vein unit 4,Barossa Complex
138.9632652,-34.4300185,,GARDEN GULLY,Gold,Low Significance,ADELAIDE GEOSYNCLINE,quartz vein unit 4,Yudnamutana Subgroup
138.7944152,-35.0534835,creek,HAHNDORF GULLY,Gold,Low Significance,,Holocene alluvial/fluvial unit 1,
138.7730582,-35.0812075,,HALLS NEW FIND,Gold,Low Significance,ADELAIDE GEOSYNCLINE,quartz vein,Emeroo Subgroup
138.7633472,-35.0871715,,HARD HILL,"Gold, Amethyst",Low Significance,,Tertiary-Pleistocene rocks,
138.7834252,-35.0747395,small heap,HAYMANS,Gold,Low Significance,ADELAIDE GEOSYNCLINE,quartz vein,Woolshed Flat Shale
138.8370672,-34.6438705,dam,MOONTA GULLY,Gold,Low Significance,,Miocene-Pliocene unit 2,
138.8377592,-34.6424395,old pit,MOONTA HILL,Gold,Low Significance,,Tertiary rocks,
138.8238112,-34.6973315,shaft,MORNING STAR,Gold,Low Significance,ADELAIDE GEOSYNCLINE,quartz vein,Barossa Complex
137.8166906,-29.8754904,main shaft,WARRA WARRA,"Copper, Gold",Low Significance,ADELAIDE GEOSYNCLINE,quartz vein unit 4,Burra Group
135.072067,-31.1149583,pit?,RED MOON,Gold,Low Significance,WILGENA SUBDOMAIN (GAWLER CRATON),quartz vein,Glenloth Granite
139.2612784,-29.8998785,shaft 4,MOUNT FREELING EAST,Gold,Low Significance,ADELAIDE GEOSYNCLINE,quartz vein,Bonney Sandstone
138.7364062,-35.0699035,river,SEAMANS POINT,Gold,Low Significance,TERTIARY PALAEOCHANNELS,Holocene alluvial/fluvial unit 1,
139.7010112,-32.2742775,workings,EMPRESS VICTORIA,Gold,Low Significance,ADELAIDE GEOSYNCLINE,quartz vein unit 4,Tapley Hill Formation
139.6993082,-32.2745305,workings,TEETULPA ENTERPRISE,Gold,Low Significance,ADELAIDE GEOSYNCLINE,quartz vein unit 4,Tapley Hill Formation
139.6875052,-32.2573595,shaft?,EVENING STAR,Gold,Low Significance,ADELAIDE GEOSYNCLINE,quartz vein unit 4,Tapley Hill Formation
140.2406391,-32.5510155,track near workings,FRENCHMAN,Gold,Low Significance,ADELAIDE GEOSYNCLINE,quartz vein unit 4,Saddleworth Formation
140.3359331,-32.5407755,qz lode?,BONNIE KEITH WEST,Gold,Low Significance,ADELAIDE GEOSYNCLINE,quartz vein,Belair Subgroup
138.8073772,-34.9211055,cleared area E of Eclipse Mine,ECLIPSE EAST,Gold,Low Significance,ADELAIDE GEOSYNCLINE,quartz vein unit 4,Burra Group
138.8065072,-34.9209095,cleared patch,ECLIPSE,"Gold, Bismuth",Low Significance,ADELAIDE GEOSYNCLINE,quartz vein,Saddleworth Formation
138.7547302,-34.8581085,W slope from creek,HOUGHTON ENTERPRISE,Gold,Low Significance,ADELAIDE GEOSYNCLINE,quartz vein unit 4,Castambul Formation unit 1
138.8500212,-34.9230045,,FEDERAL,Gold,Low Significance,TERTIARY PALAEOCHANNELS,quartz vein,Stonyfell Quartzite
138.9873092,-34.8274825,S boundary section 25,FIVE ACRES,Gold,Low Significance,KANMANTOO TROUGH (ADELAIDE GEOSYNCLINE),quartz vein,Backstairs Passage Formation
138.9340562,-34.7532915,old pit?,AVENUE GULLY,Gold,Low Significance,ADELAIDE GEOSYNCLINE,quartz vein,Emeroo Subgroup
138.8290452,-34.9876665,,BALHANNAH ALLUVIALS,Gold,Low Significance,,Holocene alluvial/fluvial unit 1,
138.8063982,-34.9831695,chimney,BALHANNAH,"Copper, Gold, Bismuth",Low Significance,ADELAIDE GEOSYNCLINE,quartz vein unit 4,Woolshed Flat Shale
138.5660612,-35.1198785,old workings?,MORPHETT VALE,Gold,Low Significance,ADELAIDE GEOSYNCLINE,quartz vein unit 4,Belair Subgroup
138.7522062,-35.0635545,,STIRLING REEF,Gold,Low Significance,ADELAIDE GEOSYNCLINE,quartz vein,Emeroo Subgroup
138.8106162,-34.9073765,creek,FOREST GLEN,Gold,Low Significance,,Holocene alluvial/fluvial unit 1,
138.8059402,-34.9216205,near dam,FOREST RANGE,Gold,Low Significance,ADELAIDE GEOSYNCLINE,quartz vein,Saddleworth Formation
139.0838963,-32.7877285,shaft,FIRST POP,Gold,Low Significance,ADELAIDE GEOSYNCLINE,quartz vein unit 4,Appila Tillite
139.0926903,-32.7891115,,GC 12395,Gold,Low Significance,ADELAIDE GEOSYNCLINE,quartz vein,
139.0913013,-32.7891805,pit,GOLD CLAIM 14504,Gold,Low Significance,ADELAIDE GEOSYNCLINE,quartz vein,
139.0919083,-32.7900278,,GOLD CLAIM 909,Gold,Low Significance,ADELAIDE GEOSYNCLINE,quartz vein,
138.8133302,-34.9180885,dense trees,BAUMS,Gold,Low Significance,ADELAIDE GEOSYNCLINE,quartz vein unit 4,Burra Group
138.9062072,-34.9581165,,BIRD IN HAND EXTENDED,Gold,Low Significance,ADELAIDE GEOSYNCLINE,quartz vein unit 4,Umberatana Group
138.9011052,-34.9531875,shaft,BLACKBIRD,Gold,Low Significance,ADELAIDE GEOSYNCLINE,quartz vein unit 4,Umberatana Group
138.7747142,-34.8737565,,KANGAROO CREEK ALLUVIALS,Gold,Low Significance,,Holocene alluvial/fluvial unit 1,
138.9123802,-34.9233795,,LA JUSTICE,Gold,Low Significance,ADELAIDE GEOSYNCLINE,quartz vein,Glen Osmond Slate Member
138.8184382,-34.8422405,old pit,LAMBERTS,Gold,Low Significance,ADELAIDE GEOSYNCLINE,quartz vein,Stonyfell Quartzite
138.9165112,-34.9264535,,LAWRENCE,Gold,Low Significance,ADELAIDE GEOSYNCLINE,quartz vein unit 4,Mitcham Quartzite
138.8744672,-34.9043575,,WHEAL EMMA,"Lead, Silver, Gold",Low Significance,ADELAIDE GEOSYNCLINE,quartz vein,Stonyfell Quartzite
138.8816772,-34.8178465,o/c,RANDELL,Gold,Low Significance,ADELAIDE GEOSYNCLINE,quartz vein,Saddleworth Formation
138.9552902,-34.8577815,cleared area,REDDAWAYS,Gold,Low Significance,ADELAIDE GEOSYNCLINE,quartz vein unit 4,Mitcham Quartzite
138.9780052,-34.8188935,SW section 6593,RICH,Gold,Low Significance,KANMANTOO TROUGH (ADELAIDE GEOSYNCLINE),quartz vein,Carrickalinga Head Formation
138.9053632,-34.9594595,open cut,RIDGE,Gold,Low Significance,ADELAIDE GEOSYNCLINE,quartz vein,Tarcowie Siltstone
139.4403243,-32.2885545,,ALMA EXTENDED,Gold,Locally Significant,ADELAIDE GEOSYNCLINE,quartz vein unit 4,Cox Sandstone Member
139.0707283,-32.7794355,shaft,AUREOUS,Gold,Low Significance,ADELAIDE GEOSYNCLINE,quartz vein unit 4,Cox Sandstone Member
139.3324863,-32.2714815,shaft?,BALLARAT SYNDICATE,Gold,Low Significance,ADELAIDE GEOSYNCLINE,quartz vein,Tapley Hill Formation
138.6598574,-32.8847605,,GRAEFES,"Gold, Copper",Low Significance,ADELAIDE GEOSYNCLINE,quartz vein unit 4,Bungaree Quartzite
139.0610943,-32.7661205,pit,HARRADINE,Gold,Low Significance,ADELAIDE GEOSYNCLINE,quartz vein unit 4,Yerelina Subgroup
138.9016882,-34.9537865,,LONE HAND,Gold,Low Significance,ADELAIDE GEOSYNCLINE,quartz vein,Tapley Hill Formation
138.8059902,-34.7838665,old pit?,LUDLOW,"Copper, Gold",Low Significance,ADELAIDE GEOSYNCLINE,quartz vein unit 4,Barossa Complex
138.9068602,-34.9721855,,SLEADER,Gold,Low Significance,ADELAIDE GEOSYNCLINE,quartz vein,Tarcowie Siltstone
139.3924323,-32.3006725,workings,NEW WEST WAUKARINGA,Gold,Low Significance,ADELAIDE GEOSYNCLINE,quartz vein unit 4,Tapley Hill Formation
139.4322163,-32.6376075,shaft,EAST NOB,"Copper, Gold",Low Significance,ADELAIDE GEOSYNCLINE,quartz vein unit 4,Saddleworth Formation
138.5913254,-32.7846345,scrape,NORMAN,Gold,Low Significance,ADELAIDE GEOSYNCLINE,quartz vein,Adelaide Series
138.9419272,-34.7530645,ck bed,ROCKY GULLY,Gold,Low Significance,,Holocene alluvial/fluvial unit 1,
138.8673082,-34.9103625,old dam,RUSSELL,Gold,Low Significance,ADELAIDE GEOSYNCLINE,quartz vein unit 4,Stonyfell Quartzite
138.9729742,-34.7922625,,ST GEORGE,Gold,Low Significance,ADELAIDE GEOSYNCLINE,quartz vein unit 4,Mitcham Quartzite
138.9328882,-34.8831875,quarry,SCHULTZ,"Quartzite, Gold",Low Significance,ADELAIDE GEOSYNCLINE,Mitcham Quartzite,
138.8679202,-34.8993745,cleared patch,LOBETHAL ALLUVIALS,Gold,Low Significance,,Holocene alluvial/fluvial unit 1,
137.6130354,-34.0562004,near portal S end open cut,WHEAL HUGHES,"Copper, Gold, Limestone",Locally Significant,MOONTA SUBDOMAIN (GAWLER CRATON),quartz vein unit 3,Moonta Porphyry
139.6834082,-32.2745055,,GOLDEN STAR,Gold,Low Significance,ADELAIDE GEOSYNCLINE,quartz vein unit 4,Tapley Hill Formation
139.6861522,-32.2790875,,GOLDEN STAR SOUTH,Gold,Low Significance,ADELAIDE GEOSYNCLINE,quartz vein,Tapley Hill Formation
140.2472451,-32.5442905,main underlie shaft,GREAT EASTERN,Gold,Low Significance,ADELAIDE GEOSYNCLINE,quartz vein unit 4,Belair Subgroup
139.6904902,-32.2638405,workings,GREAT IRONCLAD,Gold,Low Significance,ADELAIDE GEOSYNCLINE,quartz vein unit 4,Tapley Hill Formation
139.6906132,-32.2737945,,GREAT WARRIOR,Gold,Low Significance,ADELAIDE GEOSYNCLINE,quartz vein,Tapley Hill Formation
139.6863212,-32.2621285,workings,INTERNATIONAL,Gold,Low Significance,ADELAIDE GEOSYNCLINE,quartz vein,Tapley Hill Formation
139.0889863,-32.8374845,pit,NACKARA CREEK,"Copper, Gold",Low Significance,ADELAIDE GEOSYNCLINE,quartz vein unit 4,Tarcowie Siltstone
139.0559153,-32.7772705,workings,ORLANDO,Gold,Low Significance,ADELAIDE GEOSYNCLINE,quartz vein unit 4,Pepuarta Tillite
138.7113212,-35.1278485,gully on reservoir shore,MOUNT BOLD ALLUVIALS,Gold,Low Significance,,Holocene alluvial/fluvial unit 1,
139.9099822,-32.2331345,,IRON IDOL,Gold,Low Significance,CURNAMONA PROVINCE,quartz vein,Willyama Supergroup unit 14
139.6975892,-32.2685145,shaft,ISLE OF AXHOLME,Gold,Low Significance,ADELAIDE GEOSYNCLINE,quartz vein,Tapley Hill Formation
139.8517302,-32.3713075,,JACKSONS,Gold,Low Significance,ADELAIDE GEOSYNCLINE,quartz vein unit 4,Enorama Shale
139.6963952,-32.2703505,workings,TEETULPA JUBILEE,Gold,Low Significance,ADELAIDE GEOSYNCLINE,quartz vein unit 4,Tapley Hill Formation
138.9029842,-34.9690995,,FOUNTAIN HEAD,Gold,Low Significance,ADELAIDE GEOSYNCLINE,quartz vein,Tarcowie Siltstone
138.8728012,-34.9912005,,GIOVINEZZA,Gold,Low Significance,ADELAIDE GEOSYNCLINE,quartz vein,Barossa Complex
138.9124162,-34.9266075,,GLUEPOT,Gold,Low Significance,ADELAIDE GEOSYNCLINE,quartz vein unit 4,Mitcham Quartzite
138.7474622,-35.1024735,dam,CALEDONIAN,"Clay, Gold, Sand",Low Significance,,Tertiary rocks,
138.7485452,-35.1002705,clear patch in wooded area,ECHUNGA HYDRAULICS,Gold,Low Significance,TERTIARY PALAEOCHANNELS,Pleistocene alluvial/fluvial sediments,
138.6991542,-35.0102445,small clearing,UPPER STURT,Gold,Low Significance,ADELAIDE GEOSYNCLINE,quartz vein unit 4,Emeroo Subgroup
137.8701114,-34.5301154,trench,OLD HILLSIDE,"Copper, Gold, Iron, Uranium",Low Significance,MOONTA SUBDOMAIN (GAWLER CRATON),Wallaroo Group,Wallaroo Group
138.8680012,-34.9131695,o/c?,GOLDBERGS,Gold,Low Significance,ADELAIDE GEOSYNCLINE,quartz vein unit 4,Stonyfell Quartzite
138.8101602,-34.8437135,old pit?,GOLDEN BUTTERFLY,Gold,Low Significance,ADELAIDE GEOSYNCLINE,quartz vein unit 4,Barossa Complex
138.8678362,-34.9068555,small cleared area,GOLDEN EARL,Gold,Low Significance,ADELAIDE GEOSYNCLINE,quartz vein unit 4,Stonyfell Quartzite
138.8695032,-34.9057955,clump of trees,GOLDEN HILL,Gold,Low Significance,ADELAIDE GEOSYNCLINE,quartz vein unit 4,Stonyfell Quartzite
139.4276013,-32.2887515,trench,MALAKOFF,Gold,Low Significance,ADELAIDE GEOSYNCLINE,quartz vein unit 4,Tarcowie Siltstone
139.0802853,-32.7922295,,MEDORA EXTENDED,Gold,Low Significance,ADELAIDE GEOSYNCLINE,quartz vein unit 4,Appila Tillite
139.0806363,-32.7919295,shaft,MEDORA SOUTH,Gold,Low Significance,ADELAIDE GEOSYNCLINE,quartz vein unit 4,Appila Tillite
139.4518913,-32.2844085,workings,MID ALMA,Gold,Low Significance,ADELAIDE GEOSYNCLINE,quartz vein unit 4,Tarcowie Siltstone
140.4684011,-32.4350265,station 68,TEAGUES FORK,Gold,Low Significance,ADELAIDE GEOSYNCLINE,Wilyerpa Formation,Wilyerpa Formation
138.7824332,-34.9125385,creek bed,MERCHANTS,Gold,Low Significance,ADELAIDE GEOSYNCLINE,quartz vein unit 4,Saddleworth Formation
138.8935672,-34.7539945,edge of timberline,MICHAELS,Gold,Low Significance,ADELAIDE GEOSYNCLINE,quartz vein,Stonyfell Quartzite
138.8993242,-34.9424375,,MINT,Gold,Low Significance,ADELAIDE GEOSYNCLINE,quartz vein,Tapley Hill Formation
138.7544002,-34.9038605,track,MORIALTA,"Gold, Bismuth",Low Significance,ADELAIDE GEOSYNCLINE,quartz vein unit 4,Woolshed Flat Shale
138.8177952,-34.7546885,track junction,HOPE HILL,Gold,Low Significance,ADELAIDE GEOSYNCLINE,quartz vein,Barossa Complex
138.9481032,-34.8564885,tree,SIMS,Gold,Low Significance,,Miocene-Pleistocene regolith unit 1,Glen Osmond Slate Member
138.7524382,-34.8684805,creek bed,SIXTH CREEK,Gold,Low Significance,,Holocene alluvial/fluvial unit 1,Skillogalee Dolomite
138.8688142,-34.9113805,narrow clearing,SKINNER HALLIDAY AND BIDDELL,Gold,Low Significance,ADELAIDE GEOSYNCLINE,quartz vein,Stonyfell Quartzite
138.9128732,-34.8439885,creek,SKINNERS ALLUVIALS,Gold,Low Significance,,Holocene alluvial/fluvial unit 1,
138.8629212,-34.9064985,creek,SLEADER AND PARTY,Gold,Low Significance,,Holocene alluvial/fluvial unit 2,
138.9314872,-34.7511745,,SNAKE GULLY,Gold,Low Significance,,Tertiary-Pleistocene alluvial/fluvial sediments,
138.9000692,-34.8798835,N end of treed area,SPENITHORNE,Gold,Low Significance,ADELAIDE GEOSYNCLINE,quartz vein,Stonyfell Quartzite
138.6856945,-30.9506754,,HOME RULE FLAT,Gold,Low Significance,ADELAIDE GEOSYNCLINE,Holocene alluvial/fluvial sediments,
139.4265643,-32.2890605,workings,MOSTYN,Gold,Low Significance,ADELAIDE GEOSYNCLINE,quartz vein unit 4,Cox Sandstone Member
139.0564073,-32.7795445,sample GP-46,MYRTLE EXTENDED,Gold,Low Significance,ADELAIDE GEOSYNCLINE,quartz vein unit 4,Pepuarta Tillite
139.2822123,-32.8447095,,HOGBACK RANGE,Gold,Low Significance,ADELAIDE GEOSYNCLINE,quartz vein unit 4,Grampus Quartzite
138.9143762,-34.9271135,,MOUNT CHARLES,Gold,Low Significance,ADELAIDE GEOSYNCLINE,quartz vein unit 4,Mitcham Quartzite
138.9499402,-34.7514865,cleared patch,MOUNT CRAWFORD,Gold,Low Significance,ADELAIDE GEOSYNCLINE,quartz vein unit 4,Woolshed Flat Shale
138.8059452,-34.7814315,old trench,MOUNT GAWLER,Gold,Low Significance,ADELAIDE GEOSYNCLINE,quartz vein unit 4,Barossa Complex
138.9674902,-34.8486825,,MOUNT TORRENS GOVERNMENT BATTERY,Gold,Low Significance,,,
138.7988962,-34.7568095,shaft #1,STOCKYARD GULLY,"Copper, Gold, Bismuth",Low Significance,ADELAIDE GEOSYNCLINE,Delamerian igneous rocks,Barossa Complex
139.4514404,-29.8945465,,MOUNT FITTON,Gold,Low Significance,,Holocene alluvial/fluvial unit 1,
138.7315072,-35.0963335,adit THM1,TUNNEL HILL,Gold,Low Significance,ADELAIDE GEOSYNCLINE,quartz vein,Emeroo Subgroup
138.6733842,-35.0832335,main open cut,ALMANDA,"Silver, Gold, Copper",Low Significance,ADELAIDE GEOSYNCLINE,quartz vein unit 4,Woolshed Flat Shale
139.6936902,-32.2701875,workings,LION,Gold,Low Significance,ADELAIDE GEOSYNCLINE,quartz vein,Tapley Hill Formation
139.7123232,-32.2627115,shaft,MORNING STAR,Gold,Low Significance,ADELAIDE GEOSYNCLINE,quartz vein,Tapley Hill Formation
140.9095571,-32.2291116,Prospecting shaft,SCORPION EXTENDED,"Copper, Gold, Cobalt",Low Significance,CURNAMONA CRATON (CURNAMONA PROVINCE),quartz vein,Willyama Supergroup unit 23
138.6589252,-35.0607695,old trench,GAEDECHENS AND MUMME,"Silver, Gold",Low Significance,ADELAIDE GEOSYNCLINE,deep weathering,Saddleworth Formation
138.5797162,-35.1603485,river bed,ONKAPARINGA GORGE,Gold,Low Significance,,Holocene alluvial/fluvial unit 1,
139.6975452,-32.2753695,workings,NONPAREIL,Gold,Low Significance,ADELAIDE GEOSYNCLINE,quartz vein,Tapley Hill Formation
140.2041092,-32.5809185,patch of trees,IRENE,Gold,Low Significance,ADELAIDE GEOSYNCLINE,quartz vein,Saddleworth Formation
139.6871852,-32.2647985,workings,PARNELL,Gold,Low Significance,ADELAIDE GEOSYNCLINE,quartz vein unit 4,Tapley Hill Formation
139.7024542,-32.2736155,workings,PRINCE CONSORT,Gold,Low Significance,ADELAIDE GEOSYNCLINE,quartz vein,Tapley Hill Formation
138.7781142,-34.8656705,fringe of dam waters,GOLDEN KEY,Gold,Low Significance,ADELAIDE GEOSYNCLINE,quartz vein unit 4,Barossa Complex
138.8609282,-34.9030585,,GOLDEN PILE,Gold,Low Significance,ADELAIDE GEOSYNCLINE,quartz vein unit 4,Stonyfell Quartzite
139.0010422,-34.8021035,white clay,GOLDEN REWARD,"Gold, Sapphire",Low Significance,KANMANTOO TROUGH (ADELAIDE GEOSYNCLINE),quartz vein unit 4,Backstairs Passage Formation
138.8505322,-34.9279435,,GOLDEN THORPE,Gold,Low Significance,ADELAIDE GEOSYNCLINE,quartz vein unit 4,Stonyfell Quartzite
138.8667492,-34.8134365,small clearing,GOLDEN VIEW,Gold,Low Significance,ADELAIDE GEOSYNCLINE,quartz vein,Barossa Complex
138.9366182,-34.8608915,creek,GOWLANDS ALLUVIALS,Gold,Low Significance,TERTIARY PALAEOCHANNELS,Holocene alluvial/fluvial unit 1,Saddleworth Formation
138.7030882,-35.1309305,,GLEN TAGGART,Gold,Low Significance,TERTIARY PALAEOCHANNELS,Holocene alluvial/fluvial unit 2,
138.7202282,-35.0996205,tree-line at reservoir edge,ONKAPARINGA,"Copper, Gold",Low Significance,ADELAIDE GEOSYNCLINE,quartz vein unit 4,Emeroo Subgroup
